
$GPGSV,3,2,10,36,40,168,33,27,35,304,,29,14,107,36,15,14,075,43*7A

$GPGSV,3,3,10,08,03,298,,07,01,332,*74

$GPRMC,154812.000,A,4239.7592,N,02322.4020,E,0.18,64.31,150519,,,D*52

$GPVTG,64.31,T,,M,0.18,N,0.34,K,D*06

$GPGGA,154813.000,4239.7592,N,02322.4021,E,2,04,3.39,581.7,M,36.7,M,0000,0000*62

$GPGSA,A,3,20,10,29,15,,,,,,,,,3.53,3.39,0.97*0C

$GPRMC,154813.000,A,4239.7592,N,02322.4021,E,0.16,59.26,150519,,,D*54

$GPVTG,59.26,T,,M,0.16,N,0.29,K,D*0C

$GPGGA,154814.000,4239.7593,N,02322.4021,E,2,04,3.39,581.7,M,36.7,M,0000,0000*64

$GPGSA,A,3,20,10,29,15,,,,,,,,,3.52,3.39,0.97*0D

$GPRMC,154814.000,A,4239.7593,N,02322.4021,E,0.23,127.25,150519,,,D*6F

$GPVTG,127.25,T,,M,0.23,N,0.42,K,D*3C

$GPGGA,154815.000,4239.7592,N,02322.4022,E,2,04,3.39,581.7,M,36.7,M,0000,0000*67

$GPGSA,A,3,20,10,29,15,,,,,,,,,3.52,3.39,0.97*0D

$GPRMC,154815.000,A,4239.7592,N,02322.4022,E,0.13,51.82,150519,,,D*52

$GPVTG,51.82,T,,M,0.13,N,0.23,K,D*05

$GPGGA,154816.000,4239.7592,N,02322.4022,E,2,04,3.39,581.7,M,36.7,M,0000,0000*64

$GPGSA,A,3,20,10,29,15,,,,,,,,,3.52,3.39,0.97*0D

$GPRMC,154816.000,A,4239.7592,N,02322.4022,E,0.06,255.64,150519,,,D*6B

$GPVTG,255.64,T,,M,0.06,N,0.11,K,D*3E

$GPGGA,154817.000,4239.7592,N,02322.4022,E,2,04,3.39,581.7,M,36.7,M,0000,0000*65

$GPGSA,A,3,20,10,29,15,,,,,,,,,3.52,3.39,0.97*0D

$GPGSV,3,1,10,20,63,147,23,21,63,047,13,26,56,219,24,10,41,177,20*75

$GPGSV,3,2,10,36,40,168,33,27,35,304,,29,14,107,37,15,14,075,43*7B

$GPGSV,3,3,10,08,03,298,,07,01,332,*74

$GPRMC,154817.000,A,4239.7592,N,02322.4022,E,0.29,277.25,150519,,,D*62

$GPVTG,277.25,T,,M,0.29,N,0.53,K,D*30

$GPGGA,154818.000,4239.7592,N,02322.4021,E,2,04,3.38,581.7,M,36.7,M,0000,0000*68

$GPGSA,A,3,20,10,29,15,,,,,,,,,3.52,3.38,0.97*0C

$GPRMC,154818.000,A,4239.7592,N,02322.4021,E,0.25,267.51,150519,,,D*60

$GPVTG,267.51,T,,M,0.25,N,0.46,K,D*3A

$GPGGA,154819.000,4239.7592,N,02322.4020,E,2,04,3.38,581.7,M,36.7,M,0000,0000*68

$GPGSA,A,3,20,10,29,15,,,,,,,,,3.52,3.38,0.97*0C

$GPRMC,154819.000,A,4239.7592,N,02322.4020,E,0.19,269.15,150519,,,D*61

$GPVTG,269.15,T,,M,0.19,N,0.35,K,D*3F

$GPGGA,154820.000,4239.7592,N,02322.4019,E,2,04,3.38,581.7,M,36.7,M,0000,0000*68

$GPGSA,A,3,20,10,29,15,,,,,,,,,3.52,3.38,0.97*0C

$GPRMC,154820.000,A,4239.7592,N,02322.4019,E,0.29,311.12,150519,,,D*6B

$GPVTG,311.12,T,,M,0.29,N,0.55,K,D*33

$GPGGA,154821.000,4239.7593,N,02322.4018,E,2,04,3.38,581.7,M,36.7,M,0000,0000*69

$GPGSA,A,3,20,10,29,15,,,,,,,,,3.52,3.38,0.97*0C

$GPRMC,154821.000,A,4239.7593,N,02322.4018,E,0.40,327.05,150519,,,D*66

$GPVTG,327.05,T,,M,0.40,N,0.74,K,D*3C

$GPGGA,154822.000,4239.7594,N,02322.4018,E,2,04,3.38,581.7,M,36.7,M,0000,0000*6D

$GPGSA,A,3,20,10,29,15,,,,,,,,,3.52,3.38,0.97*0C

$GPGSV,3,1,10,20,63,147,20,21,63,047,13,26,56,219,24,10,41,177,24*72

$GPGSV,3,2,10,36,40,168,33,27,35,304,19,29,14,107,38,15,14,075,43*7C

$GPGSV,3,3,10,08,03,298,,07,01,332,*74

$GPRMC,154822.000,A,4239.7594,N,02322.4018,E,0.33,296.42,150519,,,D*6E

$GPVTG,296.42,T,,M,0.33,N,0.62,K,D*37

$GPGGA,154823.000,4239.7594,N,02322.4017,E,2,04,3.38,581.7,M,36.7,M,0000,0000*63

$GPGSA,A,3,20,10,29,15,,,,,,,,,3.51,3.38,0.97*0F

$GPRMC,154823.000,A,4239.7594,N,02322.4017,E,0.27,277.18,150519,,,D*65

$GPVTG,277.18,T,,M,0.27,N,0.50,K,D*33

$GPGGA,154824.000,4239.7594,N,02322.4015,E,2,04,3.38,581.7,M,36.7,M,0000,0000*66

$GPGSA,A,3,20,10,29,15,,,,,,,,,3.51,3.38,0.97*0F

$GPRMC,154824.000,A,4239.7594,N,02322.4015,E,0.34,244.97,150519,,,D*65

$GPVTG,244.97,T,,M,0.34,N,0.64,K,D*31

$GPGGA,154825.000,4239.7594,N,02322.4014,E,2,04,3.37,581.7,M,36.7,M,0000,0000*69

$GPGSA,A,3,20,10,29,15,,,,,,,,,3.51,3.37,0.97*00

$GPRMC,154825.000,A,4239.7594,N,02322.4014,E,0.28,267.15,150519,,,D*63

$GPVTG,267.15,T,,M,0.28,N,0.52,K,D*32

$GPGGA,154826.000,4239.7593,N,02322.4013,E,2,04,3.37,581.7,M,36.7,M,0000,0000*6A

$GPGSA,A,3,20,10,29,15,,,,,,,,,3.51,3.37,0.97*00

$GPRMC,154826.000,A,4239.7593,N,02322.4013,E,0.22,233.81,150519,,,D*66

$GPVTG,233.81,T,,M,0.22,N,0.42,K,D*35

$GPGGA,154827.000,4239.7593,N,02322.4013,E,2,04,3.37,581.7,M,36.7,M,0000,0000*6B

$GPGSA,A,3,20,10,29,15,,,,,,,,,3.51,3.37,0.97*00

$GPGSV,3,1,10,20,63,147,19,21,63,047,13,26,55,219,25,10,41,177,25*7B

$GPGSV,3,2,10,36,40,168,33,27,35,305,21,29,14,108,38,15,14,075,43*79

$GPGSV,3,3,10,08,03,298,,07,01,332,*74

$GPRMC,154827.000,A,4239.7593,N,02322.4013,E,0.24,272.58,150519,,,D*60

$GPVTG,272.58,T,,M,0.24,N,0.44,K,D*34

$GPGGA,154828.000,4239.7593,N,02322.4012,E,2,04,3.37,581.7,M,36.7,M,0000,0000*65

$GPGSA,A,3,20,10,29,15,,,,,,,,,3.51,3.37,0.97*00

$GPRMC,154828.000,A,4239.7593,N,02322.4012,E,0.18,262.05,150519,,,D*68

$GPVTG,262.05,T,,M,0.18,N,0.34,K,D*35

$GPGGA,154829.000,4239.7593,N,02322.4011,E,2,04,3.37,581.7,M,36.7,M,0000,0000*67

$GPGSA,A,3,20,10,29,15,,,,,,,,,3.51,3.37,0.97*00

$GPRMC,154829.000,A,4239.7593,N,02322.4011,E,0.05,302.42,150519,,,D*62

$GPVTG,302.42,T,,M,0.05,N,0.10,K,D*3B

$GPGGA,154830.000,4239.7593,N,02322.4011,E,2,04,3.37,581.7,M,36.7,M,0000,0000*6F

$GPGSA,A,3,20,10,29,15,,,,,,,,,3.51,3.37,0.97*00

$GPRMC,154830.000,A,4239.7593,N,02322.4011,E,0.17,305.40,150519,,,D*6C

$GPVTG,305.40,T,,M,0.17,N,0.32,K,D*3D

$GPGGA,154831.000,4239.7593,N,02322.4010,E,2,04,3.37,581.7,M,36.7,M,0000,0000*6F

$GPGSA,A,3,20,10,29,15,,,,,,,,,3.51,3.37,0.97*00

$GPRMC,154831.000,A,4239.7593,N,02322.4010,E,0.17,300.80,150519,,,D*65

$GPVTG,300.80,T,,M,0.17,N,0.32,K,D*34

$GPGGA,154832.000,4239.7594,N,02322.4010,E,2,04,3.37,581.7,M,36.7,M,0000,0000*6B

$GPGSA,A,3,20,10,29,15,,,,,,,,,3.51,3.37,0.97*00

$GPGSV,3,1,10,20,63,147,21,21,63,047,13,26,55,219,24,10,41,177,27*73

$GPGSV,3,2,10,36,40,168,33,27,35,305,19,29,14,108,38,15,14,075,43*72

$GPGSV,3,3,10,08,03,298,,07,01,332,*74

$GPRMC,154832.000,A,4239.7594,N,02322.4010,E,0.27,330.01,150519,,,D*68

$GPVTG,330.01,T,,M,0.27,N,0.51,K,D*38

$GPGGA,154833.000,4239.7594,N,02322.4009,E,2,04,3.37,581.7,M,36.7,M,0000,0000*62

$GPGSA,A,3,20,10,29,15,,,,,,,,,3.50,3.37,0.97*01

$GPRMC,154833.000,A,4239.7594,N,02322.4009,E,0.31,323.81,150519,,,D*6C

$GPVTG,323.81,T,,M,0.31,N,0.58,K,D*3C

$GPGGA,154834.000,4239.7595,N,02322.4009,E,2,04,3.36,581.7,M,36.7,M,0000,0000*65

$GPGSA,A,3,20,10,29,15,,,,,,,,,3.50,3.36,0.97*00

$GPRMC,154834.000,A,4239.7595,N,02322.4009,E,0.15,286.89,150519,,,D*6A

$GPVTG,286.89,T,,M,0.15,N,0.28,K,D*3B

$GPGGA,154835.000,4239.7595,N,02322.4008,E,2,04,3.36,581.7,M,36.7,M,0000,0000*65

$GPGSA,A,3,20,10,29,15,,,,,,,,,3.50,3.36,0.97*00

$GPRMC,154835.000,A,4239.7595,N,02322.4008,E,0.03,85.48,150519,,,D*51

$GPVTG,85.48,T,,M,0.03,N,0.05,K,D*0F

$GPGGA,154836.000,4239.7595,N,02322.4009,E,2,04,3.36,581.8,M,36.7,M,0000,0000*68

$GPGSA,A,3,20,10,29,15,,,,,,,,,3.50,3.36,0.97*00

$GPRMC,154836.000,A,4239.7595,N,02322.4009,E,0.16,51.87,150519,,,D*5D

$GPVTG,51.87,T,,M,0.16,N,0.30,K,D*07

$GPGGA,154837.000,4239.7595,N,02322.4009,E,2,04,3.36,581.8,M,36.7,M,0000,0000*69

$GPGSA,A,3,20,10,29,15,,,,,,,,,3.50,3.36,0.97*00

$GPGSV,3,1,10,20,63,147,21,21,63,047,15,26,55,219,24,10,41,177,28*7A

$GPGSV,3,2,10,36,40,168,33,27,35,305,18,29,14,108,37,15,14,075,43*7C

$GPGSV,3,3,10,08,03,298,,07,01,332,*74

$GPRMC,154837.000,A,4239.7595,N,02322.4009,E,0.27,36.69,150519,,,D*5F

$GPVTG,36.69,T,,M,0.27,N,0.49,K,D*0A

$GPGGA,154838.000,4239.7596,N,02322.4010,E,2,04,3.36,581.8,M,36.7,M,0000,0000*6D

$GPGSA,A,3,20,10,29,15,,,,,,,,,3.50,3.36,0.97*00

$GPRMC,154838.000,A,4239.7596,N,02322.4010,E,0.18,57.93,150519,,,D*55

$GPVTG,57.93,T,,M,0.18,N,0.33,K,D*09

$GPGGA,154839.000,4239.7596,N,02322.4011,E,2,04,3.36,581.8,M,36.7,M,0000,0000*6D

$GPGSA,A,3,20,10,29,15,,,,,,,,,3.50,3.36,0.97*00

$GPRMC,154839.000,A,4239.7596,N,02322.4011,E,0.12,95.59,150519,,,D*57

$GPVTG,95.59,T,,M,0.12,N,0.21,K,D*08

$GPGGA,154840.000,4239.7596,N,02322.4011,E,2,04,3.36,581.8,M,36.7,M,0000,0000*63

$GPGSA,A,3,20,10,29,15,,,,,,,,,3.50,3.36,0.97*00

$GPRMC,154840.000,A,4239.7596,N,02322.4011,E,0.18,55.47,150519,,,D*50

$GPVTG,55.47,T,,M,0.18,N,0.33,K,D*02

$GPGGA,154841.000,4239.7596,N,02322.4012,E,2,04,3.36,581.8,M,36.7,M,0000,0000*61

$GPGSA,A,3,20,10,29,15,,,,,,,,,3.49,3.36,0.97*08

$GPRMC,154841.000,A,4239.7596,N,02322.4012,E,0.15,32.49,150519,,,D*50

$GPVTG,32.49,T,,M,0.15,N,0.28,K,D*0A

$GPGGA,154842.000,4239.7596,N,02322.4012,E,2,04,3.35,581.8,M,36.7,M,0000,0000*61

$GPGSA,A,3,20,10,29,15,,,,,,,,,3.49,3.35,0.97*0B

$GPGSV,3,1,10,20,63,147,21,21,63,047,15,26,55,219,24,10,41,177,28*7A

$GPGSV,3,2,10,36,40,168,33,27,35,305,15,29,14,108,37,15,14,075,43*71

$GPGSV,3,3,10,08,03,298,,07,01,332,*74

$GPRMC,154842.000,A,4239.7596,N,02322.4012,E,0.18,28.61,150519,,,D*5F

$GPVTG,28.61,T,,M,0.18,N,0.33,K,D*0C

$GPGGA,154843.000,4239.7597,N,02322.4013,E,2,04,3.36,581.8,M,36.7,M,0000,0000*63

$GPGSA,A,3,20,10,29,15,,,,,,,,,3.49,3.36,0.97*08

$GPRMC,154843.000,A,4239.7597,N,02322.4013,E,0.18,88.35,150519,,,D*55

$GPVTG,88.35,T,,M,0.18,N,0.34,K,D*00

$GPGGA,154844.000,4239.7597,N,02322.4014,E,2,04,3.36,581.8,M,36.7,M,0000,0000*63

$GPGSA,A,3,20,10,29,15,,,,,,,,,3.49,3.36,0.97*08

$GPRMC,154844.000,A,4239.7597,N,02322.4014,E,0.30,107.00,150519,,,D*6F

$GPVTG,107.00,T,,M,0.30,N,0.55,K,D*3D

$GPGGA,154845.000,4239.7596,N,02322.4015,E,2,04,3.35,581.8,M,36.7,M,0000,0000*61

$GPGSA,A,3,20,10,29,15,,,,,,,,,3.49,3.35,0.97*0B

$GPRMC,154845.000,A,4239.7596,N,02322.4015,E,0.21,116.15,150519,,,D*6A

$GPVTG,116.15,T,,M,0.21,N,0.39,K,D*33

$GPGGA,154846.000,4239.7596,N,02322.4016,E,2,04,3.35,581.8,M,36.7,M,0000,0000*61

$GPGSA,A,3,20,10,29,15,,,,,,,,,3.49,3.35,0.97*0B

$GPRMC,154846.000,A,4239.7596,N,02322.4016,E,0.02,83.13,150519,,,D*50

$GPVTG,83.13,T,,M,0.02,N,0.04,K,D*07

$GPGGA,154847.000,4239.7596,N,02322.4016,E,2,04,3.35,581.8,M,36.7,M,0000,0000*60

$GPGSA,A,3,20,10,29,15,,,,,,,,,3.49,3.35,0.97*0B

$GPGSV,3,1,11,20,63,147,21,21,63,047,15,26,55,219,25,10,41,177,30*73

$GPGSV,3,2,11,36,40,168,33,27,35,305,15,29,14,108,38,15,14,075,43*7F

$GPGSV,3,3,11,13,04,045,,08,03,298,,07,01,332,*42

$GPRMC,154847.000,A,4239.7596,N,02322.4016,E,0.32,116.54,150519,,,D*6C

$GPVTG,116.54,T,,M,0.32,N,0.60,K,D*38

$GPGGA,154848.000,4239.7596,N,02322.4017,E,2,04,3.35,581.8,M,36.7,M,0000,0000*6E

$GPGSA,A,3,20,10,29,15,,,,,,,,,3.49,3.35,0.97*0B

$GPRMC,154848.000,A,4239.7596,N,02322.4017,E,0.13,46.43,150519,,,D*53

$GPVTG,46.43,T,,M,0.13,N,0.25,K,D*08

$GPGGA,154849.000,4239.7596,N,02322.4018,E,2,04,3.35,581.8,M,36.7,M,0000,0000*60

$GPGSA,A,3,20,10,29,15,,,,,,,,,3.49,3.35,0.97*0B

$GPRMC,154849.000,A,4239.7596,N,02322.4018,E,0.12,93.42,150519,,,D*55

$GPVTG,93.42,T,,M,0.12,N,0.23,K,D*06

$GPGGA,154850.000,4239.7596,N,02322.4018,E,2,04,3.35,581.8,M,36.7,M,0000,0000*68

$GPGSA,A,3,20,10,29,15,,,,,,,,,3.49,3.35,0.97*0B

$GPRMC,154850.000,A,4239.7596,N,02322.4018,E,0.14,69.82,150519,,,D*52

$GPVTG,69.82,T,,M,0.14,N,0.26,K,D*0C

$GPGGA,154851.000,4239.7596,N,02322.4019,E,2,04,3.35,581.8,M,36.7,M,0000,0000*68

$GPGSA,A,3,20,10,29,15,,,,,,,,,3.48,3.35,0.97*0A

$GPRMC,154851.000,A,4239.7596,N,02322.4019,E,0.19,69.05,150519,,,D*50

$GPVTG,69.05,T,,M,0.19,N,0.36,K,D*0F

$GPGGA,154852.000,4239.7596,N,02322.4020,E,2,04,3.35,581.8,M,36.7,M,0000,0000*61

$GPGSA,A,3,20,10,29,15,,,,,,,,,3.48,3.35,0.97*0A

$GPGSV,3,1,11,20,63,147,22,21,63,047,14,26,55,219,25,10,41,177,31*70

$GPGSV,3,2,11,36,40,168,33,27,35,305,15,29,14,108,39,15,14,075,43*7E

$GPGSV,3,3,11,13,04,045,,08,03,298,,07,01,332,*42

$GPRMC,154852.000,A,4239.7596,N,02322.4020,E,0.22,49.46,150519,,,D*54

$GPVTG,49.46,T,,M,0.22,N,0.40,K,D*03

$GPGGA,154853.000,4239.7597,N,02322.4020,E,2,04,3.34,581.8,M,36.7,M,0000,0000*60

$GPGSA,A,3,20,10,29,15,,,,,,,,,3.48,3.34,0.97*0B

$GPRMC,154853.000,A,4239.7597,N,02322.4020,E,0.29,36.30,150519,,,D*56

$GPVTG,36.30,T,,M,0.29,N,0.54,K,D*04

$GPGGA,154854.000,4239.7597,N,02322.4021,E,2,04,3.34,581.8,M,36.7,M,0000,0000*66

$GPGSA,A,3,20,10,29,15,,,,,,,,,3.48,3.34,0.97*0B

$GPRMC,154854.000,A,4239.7597,N,02322.4021,E,0.24,358.69,150519,,,D*6A

$GPVTG,358.69,T,,M,0.24,N,0.44,K,D*3F

$GPGGA,154855.000,4239.7598,N,02322.4021,E,2,04,4.83,581.9,M,36.7,M,0000,0000*62

$GPGSA,A,3,20,10,29,15,,,,,,,,,6.38,4.83,4.17*0E

$GPRMC,154855.000,A,4239.7598,N,02322.4021,E,0.33,336.23,150519,,,D*64

$GPVTG,336.23,T,,M,0.33,N,0.61,K,D*38

$GPGGA,154856.000,4239.7599,N,02322.4020,E,2,04,3.34,581.9,M,36.7,M,0000,0000*6A

$GPGSA,A,3,20,10,29,15,,,,,,,,,3.48,3.34,0.97*0B

$GPRMC,154856.000,A,4239.7599,N,02322.4020,E,0.46,343.84,150519,,,D*6A

$GPVTG,343.84,T,,M,0.46,N,0.86,K,D*3C

$GPGGA,154857.000,4239.7600,N,02322.4020,E,2,04,3.34,581.9,M,36.7,M,0000,0000*68

$GPGSA,A,3,20,10,29,15,,,,,,,,,3.48,3.34,0.97*0B

$GPGSV,3,1,11,20,63,146,23,21,62,047,14,26,55,219,25,10,41,177,31*71

$GPGSV,3,2,11,36,40,168,33,27,35,305,15,29,14,108,39,15,14,075,43*7E

$GPGSV,3,3,11,13,04,045,,08,03,298,,07,01,332,*42

$GPRMC,154857.000,A,4239.7600,N,02322.4020,E,0.34,352.34,150519,,,D*66

$GPVTG,352.34,T,,M,0.34,N,0.64,K,D*3E

$GPGGA,154858.000,4239.7601,N,02322.4020,E,2,04,4.83,581.9,M,36.7,M,0000,0000*6D

$GPGSA,A,3,20,10,29,15,,,,,,,,,6.38,4.83,4.17*0E

$GPRMC,154858.000,A,4239.7601,N,02322.4020,E,0.18,341.33,150519,,,D*63

$GPVTG,341.33,T,,M,0.18,N,0.33,K,D*37

$GPGGA,154859.000,4239.7602,N,02322.4020,E,2,04,3.34,581.9,M,36.7,M,0000,0000*64

$GPGSA,A,3,20,10,29,15,,,,,,,,,3.47,3.34,0.97*04

$GPRMC,154859.000,A,4239.7602,N,02322.4020,E,0.20,309.85,150519,,,D*6B

$GPVTG,309.85,T,,M,0.20,N,0.37,K,D*39

$GPGGA,154900.000,4239.7602,N,02322.4019,E,2,04,3.34,581.9,M,36.7,M,0000,0000*63

$GPGSA,A,3,20,10,29,15,,,,,,,,,3.48,3.34,0.97*0B

$GPRMC,154900.000,A,4239.7602,N,02322.4019,E,0.16,302.71,150519,,,D*69

$GPVTG,302.71,T,,M,0.16,N,0.30,K,D*3B

$GPGGA,154901.000,4239.7602,N,02322.4019,E,2,05,2.34,581.9,M,36.7,M,0000,0000*62

$GPGSA,A,3,20,10,29,15,26,,,,,,,,2.53,2.34,0.96*04

$GPRMC,154901.000,A,4239.7602,N,02322.4019,E,0.04,44.37,150519,,,D*58

$GPVTG,44.37,T,,M,0.04,N,0.07,K,D*0F

$GPGGA,154902.000,4239.7602,N,02322.4019,E,2,05,2.34,581.9,M,36.7,M,0000,0000*61

$GPGSA,A,3,20,10,29,15,26,,,,,,,,2.53,2.34,0.96*04

$GPGSV,3,1,11,20,63,146,23,21,62,047,15,26,55,218,24,10,41,177,31*70

$GPGSV,3,2,11,36,40,168,34,27,36,305,16,29,14,108,39,15,14,075,43*79

$GPGSV,3,3,11,13,04,045,,08,03,298,,07,01,332,*42

$GPRMC,154902.000,A,4239.7602,N,02322.4019,E,0.19,148.48,150519,,,D*62

$GPVTG,148.48,T,,M,0.19,N,0.36,K,D*34

$GPGGA,154903.000,4239.7602,N,02322.4019,E,2,05,2.34,581.9,M,36.7,M,0000,0000*60

$GPGSA,A,3,20,10,29,15,26,,,,,,,,2.53,2.34,0.96*04

$GPRMC,154903.000,A,4239.7602,N,02322.4019,E,0.13,59.58,150519,,,D*59

$GPVTG,59.58,T,,M,0.13,N,0.24,K,D*0D

$GPGGA,154904.000,4239.7602,N,02322.4020,E,2,05,2.34,581.9,M,36.7,M,0000,0000*6D

$GPGSA,A,3,20,10,29,15,26,,,,,,,,2.53,2.34,0.96*04

$GPRMC,154904.000,A,4239.7602,N,02322.4020,E,0.25,64.97,150519,,,D*5C

$GPVTG,64.97,T,,M,0.25,N,0.47,K,D*00

$GPGGA,154905.000,4239.7602,N,02322.4021,E,2,05,2.34,581.9,M,36.7,M,0000,0000*6D

$GPGSA,A,3,20,10,29,15,26,,,,,,,,2.53,2.34,0.96*04

$GPRMC,154905.000,A,4239.7602,N,02322.4021,E,0.24,53.11,150519,,,D*57

$GPVTG,53.11,T,,M,0.24,N,0.45,K,D*09

$GPGGA,154906.000,4239.7602,N,02322.4022,E,2,05,2.34,581.9,M,36.7,M,0000,0000*6D

$GPGSA,A,3,20,10,29,15,26,,,,,,,,2.53,2.34,0.96*04

$GPRMC,154906.000,A,4239.7602,N,02322.4022,E,0.19,99.42,150519,,,D*59

$GPVTG,99.42,T,,M,0.19,N,0.36,K,D*03

$GPGGA,154907.000,4239.7602,N,02322.4022,E,2,05,2.34,581.9,M,36.7,M,0000,0000*6C

$GPGSA,A,3,20,10,29,15,26,,,,,,,,2.53,2.34,0.96*04

$GPGSV,3,1,11,20,63,146,23,21,62,047,14,26,55,218,23,10,41,177,31*76

$GPGSV,3,2,11,36,40,168,34,27,36,305,17,29,14,108,38,15,14,075,43*79

$GPGSV,3,3,11,13,04,045,,08,03,298,,07,01,332,*42

$GPRMC,154907.000,A,4239.7602,N,02322.4022,E,0.31,122.83,150519,,,D*6E

$GPVTG,122.83,T,,M,0.31,N,0.57,K,D*32

$GPGGA,154908.000,4239.7602,N,02322.4023,E,2,05,2.34,581.9,M,36.7,M,0000,0000*62

$GPGSA,A,3,20,10,29,15,26,,,,,,,,2.53,2.34,0.96*04

$GPRMC,154908.000,A,4239.7602,N,02322.4023,E,0.14,89.02,150519,,,D*5E

$GPVTG,89.02,T,,M,0.14,N,0.26,K,D*0A

$GPGGA,154909.000,4239.7602,N,02322.4024,E,2,05,2.34,581.9,M,36.7,M,0000,0000*64

$GPGSA,A,3,20,10,29,15,26,,,,,,,,2.53,2.34,0.96*04

$GPRMC,154909.000,A,4239.7602,N,02322.4024,E,0.20,122.08,150519,,,D*65

$GPVTG,122.08,T,,M,0.20,N,0.37,K,D*37

$GPGGA,154910.000,4239.7601,N,02322.4025,E,2,05,2.34,581.9,M,36.7,M,0000,0000*6E

$GPGSA,A,3,20,10,29,15,26,,,,,,,,2.53,2.34,0.96*04

$GPRMC,154910.000,A,4239.7601,N,02322.4025,E,0.18,119.04,150519,,,D*60

$GPVTG,119.04,T,,M,0.18,N,0.33,K,D*3C

$GPGGA,154911.000,4239.7601,N,02322.4025,E,2,05,2.34,581.9,M,36.7,M,0000,0000*6F

$GPGSA,A,3,20,10,29,15,26,,,,,,,,2.53,2.34,0.96*04

$GPRMC,154911.000,A,4239.7601,N,02322.4025,E,0.12,96.73,150519,,,D*5D

$GPVTG,96.73,T,,M,0.12,N,0.23,K,D*01

$GPGGA,154912.000,4239.7601,N,02322.4026,E,2,05,2.34,581.9,M,36.7,M,0000,0000*6F

$GPGSA,A,3,20,10,29,15,26,,,,,,,,2.53,2.34,0.96*04

$GPGSV,3,1,11,20,63,146,23,21,62,047,14,26,55,218,23,10,41,177,31*76

$GPGSV,3,2,11,36,40,168,33,27,36,305,16,29,14,108,38,15,14,075,43*7F

$GPGSV,3,3,11,13,04,045,,08,03,298,,07,01,332,*42

$GPRMC,154912.000,A,4239.7601,N,02322.4026,E,0.19,195.08,150519,,,D*68

$GPVTG,195.08,T,,M,0.19,N,0.35,K,D*33

$GPGGA,154913.000,4239.7601,N,02322.4026,E,2,05,2.34,581.9,M,36.7,M,0000,0000*6E

$GPGSA,A,3,20,10,29,15,26,,,,,,,,2.53,2.34,0.96*04

$GPRMC,154913.000,A,4239.7601,N,02322.4026,E,0.17,228.96,150519,,,D*65

$GPVTG,228.96,T,,M,0.17,N,0.31,K,D*3B

$GPGGA,154914.000,4239.7600,N,02322.4025,E,2,05,2.34,581.9,M,36.7,M,0000,0000*6B

$GPGSA,A,3,20,10,29,15,26,,,,,,,,2.53,2.34,0.96*04

$GPRMC,154914.000,A,4239.7600,N,02322.4025,E,0.16,310.00,150519,,,D*64

$GPVTG,310.00,T,,M,0.16,N,0.30,K,D*3E

$GPGGA,154915.000,4239.7601,N,02322.4025,E,2,05,2.34,581.9,M,36.7,M,0000,0000*6B

$GPGSA,A,3,20,10,29,15,26,,,,,,,,2.53,2.34,0.96*04

$GPRMC,154915.000,A,4239.7601,N,02322.4025,E,0.22,280.88,150519,,,D*6B

$GPVTG,280.88,T,,M,0.22,N,0.41,K,D*37

$GPGGA,154916.000,4239.7601,N,02322.4024,E,2,05,2.34,581.9,M,36.7,M,0000,0000*69

$GPGSA,A,3,20,10,29,15,26,,,,,,,,2.53,2.34,0.96*04

$GPRMC,154916.000,A,4239.7601,N,02322.4024,E,0.41,252.87,150519,,,D*6C

$GPVTG,252.87,T,,M,0.41,N,0.76,K,D*36

$GPGGA,154917.000,4239.7600,N,02322.4022,E,2,05,2.34,581.9,M,36.7,M,0000,0000*6F

$GPGSA,A,3,20,10,29,15,26,,,,,,,,2.53,2.34,0.96*04

$GPGSV,3,1,11,20,63,146,22,21,62,047,14,26,55,218,23,10,41,177,30*76

$GPGSV,3,2,11,36,40,168,33,27,36,305,16,29,14,108,39,15,14,075,43*7E

$GPGSV,3,3,11,08,04,299,,13,04,045,,07,01,331,*47

$GPRMC,154917.000,A,4239.7600,N,02322.4022,E,0.45,281.08,150519,,,D*67

$GPVTG,281.08,T,,M,0.45,N,0.83,K,D*31

$GPGGA,154918.000,4239.7601,N,02322.4020,E,2,05,2.34,581.9,M,36.7,M,0000,0000*63

$GPGSA,A,3,20,10,29,15,26,,,,,,,,2.53,2.34,0.96*04

$GPRMC,154918.000,A,4239.7601,N,02322.4020,E,0.46,296.08,150519,,,D*6E

$GPVTG,296.08,T,,M,0.46,N,0.85,K,D*32

$GPGGA,154919.000,4239.7601,N,02322.4019,E,2,05,2.34,581.9,M,36.7,M,0000,0000*68

$GPGSA,A,3,20,10,29,15,26,,,,,,,,2.53,2.34,0.96*04

$GPRMC,154919.000,A,4239.7601,N,02322.4019,E,0.61,321.93,150519,,,D*6F

$GPVTG,321.93,T,,M,0.61,N,1.12,K,D*37

$GPGGA,154920.000,4239.7602,N,02322.4017,E,2,05,2.34,581.9,M,36.7,M,0000,0000*6F

$GPGSA,A,3,20,10,29,15,26,,,,,,,,2.53,2.34,0.96*04

$GPRMC,154920.000,A,4239.7602,N,02322.4017,E,0.50,322.72,150519,,,D*66

$GPVTG,322.72,T,,M,0.50,N,0.93,K,D*31

$GPGGA,154921.000,4239.7604,N,02322.4015,E,2,05,2.34,582.0,M,36.7,M,0000,0000*60

$GPGSA,A,3,20,10,29,15,26,,,,,,,,2.53,2.34,0.96*04

$GPRMC,154921.000,A,4239.7604,N,02322.4015,E,0.54,336.14,150519,,,D*62

$GPVTG,336.14,T,,M,0.54,N,1.00,K,D*3B

$GPGGA,154922.000,4239.7604,N,02322.4013,E,2,05,2.34,582.0,M,36.7,M,0000,0000*65

$GPGSA,A,3,20,10,29,15,26,,,,,,,,2.53,2.34,0.96*04

$GPGSV,3,1,11,20,63,146,23,21,62,047,15,26,55,218,22,10,41,177,29*7F

$GPGSV,3,2,11,36,40,168,34,27,36,305,16,29,14,108,38,15,14,075,43*78

$GPGSV,3,3,11,08,04,299,,13,04,045,,07,01,331,*47

$GPRMC,154922.000,A,4239.7604,N,02322.4013,E,0.50,327.17,150519,,,D*60

$GPVTG,327.17,T,,M,0.50,N,0.93,K,D*37

$GPGGA,154923.000,4239.7604,N,02322.4011,E,2,05,2.34,582.0,M,36.7,M,0000,0000*66

$GPGSA,A,3,20,10,29,15,26,,,,,,,,2.53,2.34,0.96*04

$GPRMC,154923.000,A,4239.7604,N,02322.4011,E,0.48,313.96,150519,,,D*64

$GPVTG,313.96,T,,M,0.48,N,0.90,K,D*33

$GPGGA,154924.000,4239.7605,N,02322.4010,E,2,05,2.34,582.0,M,36.7,M,0000,0000*61

$GPGSA,A,3,20,10,29,15,26,,,,,,,,2.53,2.34,0.96*04

$GPRMC,154924.000,A,4239.7605,N,02322.4010,E,0.47,319.92,150519,,,D*62

$GPVTG,319.92,T,,M,0.47,N,0.88,K,D*3B

$GPGGA,154925.000,4239.7606,N,02322.4009,E,2,05,2.34,582.0,M,36.7,M,0000,0000*6B

$GPGSA,A,3,20,10,29,15,26,,,,,,,,2.53,2.34,0.96*04

$GPRMC,154925.000,A,4239.7606,N,02322.4009,E,0.52,318.90,150519,,,D*6F

$GPVTG,318.90,T,,M,0.52,N,0.97,K,D*32

$GPGGA,154926.000,4239.7607,N,02322.4007,E,2,05,2.34,582.0,M,36.7,M,0000,0000*67

$GPGSA,A,3,20,10,29,15,26,,,,,,,,2.53,2.34,0.96*04

$GPRMC,154926.000,A,4239.7607,N,02322.4007,E,0.53,343.88,150519,,,D*65

$GPVTG,343.88,T,,M,0.53,N,0.99,K,D*3A

$GPGGA,154927.000,4239.7609,N,02322.4007,E,2,05,2.34,582.0,M,36.7,M,0000,0000*68

$GPGSA,A,3,20,10,29,15,26,,,,,,,,2.53,2.34,0.96*04

$GPGSV,3,1,11,20,63,146,24,21,62,047,16,26,55,218,22,10,41,177,29*7B

$GPGSV,3,2,11,36,40,168,34,27,36,305,16,29,14,108,37,15,14,075,43*77

$GPGSV,3,3,11,08,04,299,,13,04,045,,07,01,331,*47

$GPRMC,154927.000,A,4239.7609,N,02322.4007,E,0.49,358.07,150519,,,D*6C

$GPVTG,358.07,T,,M,0.49,N,0.91,K,D*34

$GPGGA,154928.000,4239.7610,N,02322.4007,E,2,05,2.79,582.0,M,36.7,M,0000,0000*66

$GPGSA,A,3,20,10,29,15,26,,,,,,,,4.29,2.79,3.25*0D

$GPRMC,154928.000,A,4239.7610,N,02322.4007,E,0.39,350.03,150519,,,D*60

$GPVTG,350.03,T,,M,0.39,N,0.73,K,D*33

$GPGGA,154929.000,4239.7611,N,02322.4007,E,2,05,2.79,582.0,M,36.7,M,0000,0000*66

$GPGSA,A,3,20,10,29,15,26,,,,,,,,4.28,2.79,3.25*0C

$GPRMC,154929.000,A,4239.7611,N,02322.4007,E,0.11,281.86,150519,,,D*6A

$GPVTG,281.86,T,,M,0.11,N,0.20,K,D*3F

$GPGGA,154930.000,4239.7611,N,02322.4006,E,2,05,2.34,582.0,M,36.7,M,0000,0000*66

$GPGSA,A,3,20,10,29,15,26,,,,,,,,2.53,2.34,0.96*04

$GPRMC,154930.000,A,4239.7611,N,02322.4006,E,0.01,235.05,150519,,,D*66

$GPVTG,235.05,T,,M,0.01,N,0.01,K,D*39

$GPGGA,154931.000,4239.7611,N,02322.4006,E,2,05,2.34,582.0,M,36.7,M,0000,0000*67

$GPGSA,A,3,20,10,29,15,26,,,,,,,,2.53,2.34,0.96*04

$GPRMC,154931.000,A,4239.7611,N,02322.4006,E,0.19,356.22,150519,,,D*6F

$GPVTG,356.22,T,,M,0.19,N,0.36,K,D*35

$GPGGA,154932.000,4239.7611,N,02322.4006,E,2,05,2.79,582.0,M,36.7,M,0000,0000*6D

$GPGSA,A,3,20,10,29,15,26,,,,,,,,4.28,2.79,3.25*0C

$GPGSV,3,1,11,20,64,146,23,21,62,047,16,26,55,218,22,10,41,177,28*7A

$GPGSV,3,2,11,36,40,168,33,27,36,305,17,29,14,108,37,15,14,075,43*71

$GPGSV,3,3,11,08,04,299,,13,04,045,,07,01,331,*47

$GPRMC,154932.000,A,4239.7611,N,02322.4006,E,0.05,30.81,150519,,,D*5B

$GPVTG,30.81,T,,M,0.05,N,0.09,K,D*0E

$GPGGA,154933.000,4239.7612,N,02322.4006,E,2,05,2.34,582.0,M,36.7,M,0000,0000*66

$GPGSA,A,3,20,10,29,15,26,,,,,,,,2.53,2.34,0.96*04

$GPRMC,154933.000,A,4239.7612,N,02322.4006,E,0.21,325.63,150519,,,D*64

$GPVTG,325.63,T,,M,0.21,N,0.39,K,D*30

$GPGGA,154934.000,4239.7612,N,02322.4006,E,2,05,2.34,582.0,M,36.7,M,0000,0000*61

$GPGSA,A,3,20,10,29,15,26,,,,,,,,2.53,2.34,0.96*04

$GPRMC,154934.000,A,4239.7612,N,02322.4006,E,0.27,311.67,150519,,,D*66

$GPVTG,311.67,T,,M,0.27,N,0.50,K,D*3A

$GPGGA,154935.000,4239.7613,N,02322.4005,E,2,05,2.34,582.0,M,36.7,M,0000,0000*62

$GPGSA,A,3,20,10,29,15,26,,,,,,,,2.53,2.34,0.96*04

$GPRMC,154935.000,A,4239.7613,N,02322.4005,E,0.35,313.98,150519,,,D*64

$GPVTG,313.98,T,,M,0.35,N,0.64,K,D*3C

$GPGGA,154936.000,4239.7613,N,02322.4004,E,2,05,2.34,582.0,M,36.7,M,0000,0000*60

$GPGSA,A,3,20,10,29,15,26,,,,,,,,2.53,2.34,0.96*04

$GPRMC,154936.000,A,4239.7613,N,02322.4004,E,0.34,314.56,150519,,,D*62

$GPVTG,314.56,T,,M,0.34,N,0.63,K,D*3F

$GPGGA,154937.000,4239.7614,N,02322.4003,E,2,05,2.34,582.0,M,36.7,M,0000,0000*61

$GPGSA,A,3,20,10,29,15,26,,,,,,,,2.53,2.34,0.96*04

$GPGSV,3,1,11,20,64,146,23,21,62,047,14,26,55,218,22,10,41,177,28*78

$GPGSV,3,2,11,36,40,168,34,27,36,305,17,29,14,108,39,15,14,075,43*78

$GPGSV,3,3,11,08,04,299,,13,04,045,,07,01,331,*47

$GPRMC,154937.000,A,4239.7614,N,02322.4003,E,0.26,262.25,150519,,,D*64

$GPVTG,262.25,T,,M,0.26,N,0.48,K,D*31

$GPGGA,154938.000,4239.7614,N,02322.4002,E,2,05,2.34,582.0,M,36.7,M,0000,0000*6F

$GPGSA,A,3,20,10,29,15,26,,,,,,,,2.53,2.34,0.96*04

$GPRMC,154938.000,A,4239.7614,N,02322.4002,E,0.25,270.28,150519,,,D*67

$GPVTG,270.28,T,,M,0.25,N,0.47,K,D*33

$GPGGA,154939.000,4239.7614,N,02322.4001,E,2,05,2.34,582.0,M,36.7,M,0000,0000*6D

$GPGSA,A,3,20,10,29,15,26,,,,,,,,2.53,2.34,0.96*04

$GPRMC,154939.000,A,4239.7614,N,02322.4001,E,0.22,267.41,150519,,,D*6B

$GPVTG,267.41,T,,M,0.22,N,0.40,K,D*3A

$GPGGA,154940.000,4239.7614,N,02322.4000,E,2,05,2.34,582.0,M,36.7,M,0000,0000*62

$GPGSA,A,3,20,10,29,15,26,,,,,,,,2.53,2.34,0.96*04

$GPRMC,154940.000,A,4239.7614,N,02322.4000,E,0.28,295.81,150519,,,D*6F

$GPVTG,295.81,T,,M,0.28,N,0.52,K,D*32

$GPGGA,154941.000,4239.7614,N,02322.3999,E,2,05,2.34,582.0,M,36.7,M,0000,0000*6D

$GPGSA,A,3,20,10,29,15,26,,,,,,,,2.53,2.34,0.96*04

$GPRMC,154941.000,A,4239.7614,N,02322.3999,E,0.12,309.19,150519,,,D*6C

$GPVTG,309.19,T,,M,0.12,N,0.23,K,D*38

$GPGGA,154942.000,4239.7614,N,02322.3999,E,2,05,2.34,582.0,M,36.7,M,0000,0000*6E

$GPGSA,A,3,20,10,29,15,26,,,,,,,,2.53,2.34,0.96*04

$GPGSV,3,1,11,20,64,146,24,21,62,047,14,26,55,218,22,10,41,177,28*7F

$GPGSV,3,2,11,36,40,168,34,27,36,305,17,15,14,075,43,29,13,108,38*7E

$GPGSV,3,3,11,08,04,299,,13,04,045,,07,01,331,*47

$GPRMC,154942.000,A,4239.7614,N,02322.3999,E,0.16,293.59,150519,,,D*6D

$GPVTG,293.59,T,,M,0.16,N,0.29,K,D*30

$GPGGA,154943.000,4239.7614,N,02322.3998,E,2,05,2.34,582.0,M,36.7,M,0000,0000*6E

$GPGSA,A,3,20,10,29,15,26,,,,,,,,2.53,2.34,0.96*04

$GPRMC,154943.000,A,4239.7614,N,02322.3998,E,0.22,295.67,150519,,,D*61

$GPVTG,295.67,T,,M,0.22,N,0.40,K,D*33

$GPGGA,154944.000,4239.7615,N,02322.3998,E,2,05,2.34,582.0,M,36.7,M,0000,0000*68

$GPGSA,A,3,20,10,29,15,26,,,,,,,,2.53,2.34,0.96*04

$GPRMC,154944.000,A,4239.7615,N,02322.3998,E,0.16,288.15,150519,,,D*69

$GPVTG,288.15,T,,M,0.16,N,0.29,K,D*32

$GPGGA,154945.000,4239.7615,N,02322.3997,E,2,05,2.34,582.0,M,36.7,M,0000,0000*66

$GPGSA,A,3,20,10,29,15,26,,,,,,,,2.53,2.34,0.96*04

$GPRMC,154945.000,A,4239.7615,N,02322.3997,E,0.28,315.31,150519,,,D*69

$GPVTG,315.31,T,,M,0.28,N,0.52,K,D*30

$GPGGA,154946.000,4239.7615,N,02322.3996,E,2,05,2.34,582.0,M,36.7,M,0000,0000*64

$GPGSA,A,3,20,10,29,15,26,,,,,,,,2.53,2.34,0.96*04

$GPRMC,154946.000,A,4239.7615,N,02322.3996,E,0.17,231.95,150519,,,D*6E

$GPVTG,231.95,T,,M,0.17,N,0.32,K,D*33

$GPGGA,154947.000,4239.7615,N,02322.3996,E,2,05,2.34,582.0,M,36.7,M,0000,0000*65

$GPGSA,A,3,20,10,29,15,26,,,,,,,,2.53,2.34,0.96*04

$GPGSV,3,1,11,20,64,146,24,21,62,047,12,26,55,218,23,10,41,177,27*77

$GPGSV,3,2,11,36,40,168,33,27,36,305,18,15,14,075,42,29,13,108,37*78

$GPGSV,3,3,11,08,04,299,,13,04,045,,07,01,331,*47

$GPRMC,154947.000,A,4239.7615,N,02322.3996,E,0.11,202.95,150519,,,D*69

$GPVTG,202.95,T,,M,0.11,N,0.20,K,D*36

$GPGGA,154948.000,4239.7614,N,02322.3996,E,2,05,2.34,582.0,M,36.7,M,0000,0000*6B

$GPGSA,A,3,20,10,29,15,26,,,,,,,,2.53,2.34,0.96*04

$GPRMC,154948.000,A,4239.7614,N,02322.3996,E,0.12,265.84,150519,,,D*65

$GPVTG,265.84,T,,M,0.12,N,0.22,K,D*36

$GPGGA,154949.000,4239.7614,N,02322.3995,E,2,05,2.34,582.0,M,36.7,M,0000,0000*69

$GPGSA,A,3,20,10,29,15,26,,,,,,,,2.53,2.34,0.96*04

$GPRMC,154949.000,A,4239.7614,N,02322.3995,E,0.02,97.06,150519,,,D*53

$GPVTG,97.06,T,,M,0.02,N,0.04,K,D*06

$GPGGA,154950.000,4239.7614,N,02322.3995,E,2,05,2.34,582.0,M,36.7,M,0000,0000*61

$GPGSA,A,3,20,10,29,15,26,,,,,,,,2.53,2.34,0.96*04

$GPRMC,154950.000,A,4239.7614,N,02322.3995,E,0.06,27.95,150519,,,D*5E

$GPVTG,27.95,T,,M,0.06,N,0.11,K,D*07

$GPGGA,154951.000,4239.7614,N,02322.3996,E,2,05,2.34,582.0,M,36.7,M,0000,0000*63

$GPGSA,A,3,20,10,29,15,26,,,,,,,,2.53,2.34,0.96*04

$GPRMC,154951.000,A,4239.7614,N,02322.3996,E,0.17,270.49,150519,,,D*6D

$GPVTG,270.49,T,,M,0.17,N,0.31,K,D*34

$GPGGA,154952.000,4239.7614,N,02322.3995,E,2,05,2.34,582.0,M,36.7,M,0000,0000*63

$GPGSA,A,3,20,10,29,15,26,,,,,,,,2.53,2.34,0.96*04

$GPGSV,3,1,11,20,64,146,25,21,62,047,13,26,55,218,24,10,41,177,27*70

$GPGSV,3,2,11,36,40,168,34,27,36,305,18,15,14,075,42,29,13,108,36*7E

$GPGSV,3,3,11,08,04,299,,13,04,045,,07,01,331,*47

$GPRMC,154952.000,A,4239.7614,N,02322.3995,E,0.13,211.76,150519,,,D*62

$GPVTG,211.76,T,,M,0.13,N,0.25,K,D*3E

$GPGGA,154953.000,4239.7614,N,02322.3995,E,2,05,2.34,582.0,M,36.7,M,0000,0000*62

$GPGSA,A,3,20,10,29,15,26,,,,,,,,2.53,2.34,0.96*04

$GPRMC,154953.000,A,4239.7614,N,02322.3995,E,0.12,150.09,150519,,,D*6C

$GPVTG,150.09,T,,M,0.12,N,0.22,K,D*36

$GPGGA,154954.000,4239.7614,N,02322.3995,E,2,05,2.34,582.0,M,36.7,M,0000,0000*65

$GPGSA,A,3,20,10,29,15,26,,,,,,,,2.53,2.34,0.96*04

$GPRMC,154954.000,A,4239.7614,N,02322.3995,E,0.14,161.78,150519,,,D*69

$GPVTG,161.78,T,,M,0.14,N,0.25,K,D*33

$GPGGA,154955.000,4239.7613,N,02322.3995,E,2,05,2.34,582.0,M,36.7,M,0000,0000*63

$GPGSA,A,3,20,10,29,15,26,,,,,,,,2.53,2.34,0.96*04

$GPRMC,154955.000,A,4239.7613,N,02322.3995,E,0.22,118.95,150519,,,D*67

$GPVTG,118.95,T,,M,0.22,N,0.40,K,D*38

$GPGGA,154956.000,4239.7613,N,02322.3996,E,2,05,2.34,582.0,M,36.7,M,0000,0000*63

$GPGSA,A,3,20,10,29,15,26,,,,,,,,2.53,2.34,0.96*04

$GPRMC,154956.000,A,4239.7613,N,02322.3996,E,0.24,114.11,150519,,,D*61

$GPVTG,114.11,T,,M,0.24,N,0.45,K,D*3B

$GPGGA,154957.000,4239.7612,N,02322.3997,E,2,05,2.34,582.0,M,36.7,M,0000,0000*62

$GPGSA,A,3,20,10,29,15,26,,,,,,,,2.53,2.34,0.96*04

$GPGSV,3,1,11,20,64,146,26,21,62,047,13,26,55,218,23,10,42,177,26*76

$GPGSV,3,2,11,36,40,168,33,27,36,305,18,15,14,075,42,29,13,108,38*77

$GPGSV,3,3,11,08,04,299,,13,04,044,,07,01,331,*46

$GPRMC,154957.000,A,4239.7612,N,02322.3997,E,0.18,121.38,150519,,,D*62

$GPVTG,121.38,T,,M,0.18,N,0.33,K,D*38

$GPGGA,154958.000,4239.7612,N,02322.3998,E,2,05,2.34,582.0,M,36.7,M,0000,0000*62

$GPGSA,A,3,20,10,29,15,26,,,,,,,,2.53,2.34,0.96*04

$GPRMC,154958.000,A,4239.7612,N,02322.3998,E,0.11,100.50,150519,,,D*66

$GPVTG,100.50,T,,M,0.11,N,0.20,K,D*3E

$GPGGA,154959.000,4239.7612,N,02322.3998,E,2,05,2.34,582.0,M,36.7,M,0000,0000*63

$GPGSA,A,3,20,10,29,15,26,,,,,,,,2.53,2.34,0.96*04

$GPRMC,154959.000,A,4239.7612,N,02322.3998,E,0.04,124.89,150519,,,D*61

$GPVTG,124.89,T,,M,0.04,N,0.08,K,D*32

$GPGGA,155000.000,4239.7612,N,02322.3998,E,2,05,2.34,582.0,M,36.7,M,0000,0000*67

$GPGSA,A,3,20,10,29,15,26,,,,,,,,2.53,2.34,0.96*04

$GPRMC,155000.000,A,4239.7612,N,02322.3998,E,0.09,119.42,150519,,,D*61

$GPVTG,119.42,T,,M,0.09,N,0.17,K,D*38

$GPGGA,155001.000,4239.7612,N,02322.3998,E,2,05,2.34,582.0,M,36.7,M,0000,0000*66

$GPGSA,A,3,20,10,29,15,26,,,,,,,,2.53,2.34,0.96*04

$GPRMC,155001.000,A,4239.7612,N,02322.3998,E,0.25,148.57,150519,,,D*6E

$GPVTG,148.57,T,,M,0.25,N,0.47,K,D*33

$GPGGA,155002.000,4239.7611,N,02322.3999,E,2,05,2.34,582.0,M,36.7,M,0000,0000*67

$GPGSA,A,3,20,10,29,15,26,,,,,,,,2.53,2.34,0.96*04

$GPGSV,3,1,11,20,64,146,26,21,62,047,13,26,55,218,23,10,42,177,25*75

$GPGSV,3,2,11,36,40,168,33,27,36,305,18,15,14,075,42,29,13,108,39*76

$GPGSV,3,3,11,08,04,299,,13,04,044,,07,01,331,*46

$GPRMC,155002.000,A,4239.7611,N,02322.3999,E,0.15,149.27,150519,,,D*6A

$GPVTG,149.27,T,,M,0.15,N,0.27,K,D*30

$GPGGA,155003.000,4239.7611,N,02322.3999,E,2,05,2.34,582.0,M,36.7,M,0000,0000*66

$GPGSA,A,3,20,10,29,15,26,,,,,,,,2.53,2.34,0.96*04

$GPRMC,155003.000,A,4239.7611,N,02322.3999,E,0.08,359.39,150519,,,D*6B

$GPVTG,359.39,T,,M,0.08,N,0.14,K,D*30

$GPGGA,155004.000,4239.7611,N,02322.3999,E,2,05,2.79,582.0,M,36.7,M,0000,0000*68

$GPGSA,A,3,20,10,29,15,26,,,,,,,,4.26,2.79,3.23*04

$GPRMC,155004.000,A,4239.7611,N,02322.3999,E,0.19,163.11,150519,,,D*6D

$GPVTG,163.11,T,,M,0.19,N,0.35,K,D*32

$GPGGA,155005.000,4239.7611,N,02322.3999,E,2,05,2.34,582.1,M,36.7,M,0000,0000*61

$GPGSA,A,3,20,10,29,15,26,,,,,,,,2.53,2.34,0.96*04

$GPRMC,155005.000,A,4239.7611,N,02322.3999,E,0.13,138.63,150519,,,D*6D

$GPVTG,138.63,T,,M,0.13,N,0.24,K,D*33

$GPGGA,155006.000,4239.7610,N,02322.4000,E,2,05,2.34,582.1,M,36.7,M,0000,0000*6D

$GPGSA,A,3,20,10,29,15,26,,,,,,,,2.53,2.34,0.96*04

$GPRMC,155006.000,A,4239.7610,N,02322.4000,E,0.15,69.85,150519,,,D*5A

$GPVTG,69.85,T,,M,0.15,N,0.28,K,D*04

$GPGGA,155007.000,4239.7610,N,02322.4000,E,2,05,2.34,582.1,M,36.7,M,0000,0000*6C

$GPGSA,A,3,20,10,29,15,26,,,,,,,,2.53,2.34,0.96*04

$GPGSV,3,1,11,20,64,145,26,21,62,048,12,26,55,218,23,10,42,177,25*78

$GPGSV,3,2,11,36,40,168,34,27,36,305,20,15,14,075,42,29,13,108,39*7A

$GPGSV,3,3,11,08,04,299,,13,04,044,,07,01,331,*46

$GPRMC,155007.000,A,4239.7610,N,02322.4000,E,0.16,103.24,150519,,,D*6E

$GPVTG,103.24,T,,M,0.16,N,0.29,K,D*30

$GPGGA,155008.000,4239.7610,N,02322.4001,E,2,05,2.34,582.1,M,36.7,M,0000,0000*62

$GPGSA,A,3,20,10,29,15,26,,,,,,,,2.53,2.34,0.96*04

$GPRMC,155008.000,A,4239.7610,N,02322.4001,E,0.07,153.87,150519,,,D*6C

$GPVTG,153.87,T,,M,0.07,N,0.13,K,D*35

$GPGGA,155009.000,4239.7610,N,02322.4001,E,2,05,2.34,582.1,M,36.7,M,0000,0000*63

$GPGSA,A,3,20,10,29,15,26,,,,,,,,2.53,2.34,0.96*04

$GPRMC,155009.000,A,4239.7610,N,02322.4001,E,0.10,188.64,150519,,,D*60

$GPVTG,188.64,T,,M,0.10,N,0.19,K,D*32

$GPGGA,155010.000,4239.7610,N,02322.4001,E,2,05,2.34,582.1,M,36.7,M,0000,0000*6B

$GPGSA,A,3,20,10,29,15,26,,,,,,,,2.53,2.34,0.96*04

$GPRMC,155010.000,A,4239.7610,N,02322.4001,E,0.25,167.42,150519,,,D*6B

$GPVTG,167.42,T,,M,0.25,N,0.46,K,D*3B

$GPGGA,155011.000,4239.7609,N,02322.4001,E,2,05,2.34,582.1,M,36.7,M,0000,0000*62

$GPGSA,A,3,20,10,29,15,26,,,,,,,,2.53,2.34,0.96*04

$GPRMC,155011.000,A,4239.7609,N,02322.4001,E,0.19,198.47,150519,,,D*68

$GPVTG,198.47,T,,M,0.19,N,0.35,K,D*35

$GPGGA,155012.000,4239.7608,N,02322.4001,E,2,05,2.34,582.1,M,36.7,M,0000,0000*60

$GPGSA,A,3,20,10,29,15,26,,,,,,,,2.53,2.34,0.96*04

$GPGSV,3,1,11,20,64,145,26,21,62,048,13,26,55,218,23,10,42,177,23*7F

$GPGSV,3,2,11,36,40,168,34,27,36,305,22,15,14,075,41,29,13,108,38*7A

$GPGSV,3,3,11,08,04,299,,13,04,044,,07,01,331,*46

$GPRMC,155012.000,A,4239.7608,N,02322.4001,E,0.03,129.53,150519,,,D*6E

$GPVTG,129.53,T,,M,0.03,N,0.06,K,D*31

$GPGGA,155013.000,4239.7608,N,02322.4001,E,2,05,2.34,582.1,M,36.7,M,0000,0000*61

$GPGSA,A,3,20,10,29,15,26,,,,,,,,2.53,2.34,0.95*07

$GPRMC,155013.000,A,4239.7608,N,02322.4001,E,0.13,211.78,150519,,,D*6F

$GPVTG,211.78,T,,M,0.13,N,0.24,K,D*31

$GPGGA,155014.000,4239.7608,N,02322.4001,E,2,05,2.34,582.1,M,36.7,M,0000,0000*66

$GPGSA,A,3,20,10,29,15,26,,,,,,,,2.53,2.34,0.96*04

$GPRMC,155014.000,A,4239.7608,N,02322.4001,E,0.11,169.96,150519,,,D*66

$GPVTG,169.96,T,,M,0.11,N,0.20,K,D*3B

$GPGGA,155015.000,4239.7608,N,02322.4001,E,2,05,2.34,582.1,M,36.7,M,0000,0000*67

$GPGSA,A,3,20,10,29,15,26,,,,,,,,2.53,2.34,0.96*04

$GPRMC,155015.000,A,4239.7608,N,02322.4001,E,0.09,1.02,150519,,,D*6C

$GPVTG,1.02,T,,M,0.09,N,0.17,K,D*34

$GPGGA,155016.000,4239.7608,N,02322.4001,E,2,05,2.78,582.1,M,36.7,M,0000,0000*6C

$GPGSA,A,3,20,10,29,15,26,,,,,,,,4.25,2.78,3.22*07

$GPRMC,155016.000,A,4239.7608,N,02322.4001,E,0.06,18.46,150519,,,D*58

$GPVTG,18.46,T,,M,0.06,N,0.11,K,D*05

$GPGGA,155017.000,4239.7608,N,02322.4001,E,2,05,2.34,582.1,M,36.7,M,0000,0000*65

$GPGSA,A,3,20,10,29,15,26,,,,,,,,2.53,2.34,0.95*07

$GPGSV,3,1,12,20,64,145,27,21,62,048,11,16,59,277,,26,55,218,24*76

$GPGSV,3,2,12,10,42,177,24,36,40,168,33,27,36,305,22,15,14,075,41*75

$GPGSV,3,3,12,29,13,108,37,08,04,299,,13,04,044,,07,01,331,*71

$GPRMC,155017.000,A,4239.7608,N,02322.4001,E,0.11,281.62,150519,,,D*6B

$GPVTG,281.62,T,,M,0.11,N,0.21,K,D*34

$GPGGA,155018.000,4239.7608,N,02322.4001,E,2,05,2.34,582.1,M,36.7,M,0000,0000*6A

$GPGSA,A,3,20,10,29,15,26,,,,,,,,2.53,2.34,0.95*07

$GPRMC,155018.000,A,4239.7608,N,02322.4001,E,0.11,188.23,150519,,,D*6B

$GPVTG,188.23,T,,M,0.11,N,0.21,K,D*3B

$GPGGA,155019.000,4239.7607,N,02322.4001,E,2,05,2.34,582.1,M,36.7,M,0000,0000*64

$GPGSA,A,3,20,10,29,15,26,,,,,,,,2.53,2.34,0.95*07

$GPRMC,155019.000,A,4239.7607,N,02322.4001,E,0.35,170.35,150519,,,D*63

$GPVTG,170.35,T,,M,0.35,N,0.64,K,D*3C

$GPGGA,155020.000,4239.7606,N,02322.4001,E,2,05,2.34,582.1,M,36.7,M,0000,0000*6F

$GPGSA,A,3,20,10,29,15,26,,,,,,,,2.53,2.34,0.95*07

$GPRMC,155020.000,A,4239.7606,N,02322.4001,E,0.17,140.64,150519,,,D*6F

$GPVTG,140.64,T,,M,0.17,N,0.32,K,D*38

$GPGGA,155021.000,4239.7606,N,02322.4002,E,2,05,2.34,582.1,M,36.7,M,0000,0000*6D

$GPGSA,A,3,20,10,29,15,26,,,,,,,,2.53,2.34,0.95*07

$GPRMC,155021.000,A,4239.7606,N,02322.4002,E,0.14,171.49,150519,,,D*63

$GPVTG,171.49,T,,M,0.14,N,0.26,K,D*33

$GPGGA,155022.000,4239.7606,N,02322.4002,E,2,05,2.34,582.1,M,36.7,M,0000,0000*6E

$GPGSA,A,3,20,10,29,15,26,,,,,,,,2.53,2.34,0.95*07

$GPGSV,3,1,12,20,64,145,27,21,62,048,,16,59,277,,26,55,218,23*71

$GPGSV,3,2,12,10,42,177,24,36,40,168,34,27,36,305,22,15,14,075,41*72

$GPGSV,3,3,12,29,13,108,38,08,04,299,,13,04,044,,07,01,331,*7E

$GPRMC,155022.000,A,4239.7606,N,02322.4002,E,0.12,30.41,150519,,,D*5A

$GPVTG,30.41,T,,M,0.12,N,0.22,K,D*0D

$GPGGA,155023.000,4239.7606,N,02322.4002,E,2,05,2.34,582.1,M,36.7,M,0000,0000*6F

$GPGSA,A,3,20,10,29,15,26,,,,,,,,2.53,2.34,0.95*07

$GPRMC,155023.000,A,4239.7606,N,02322.4002,E,0.17,357.17,150519,,,D*6F

$GPVTG,357.17,T,,M,0.17,N,0.31,K,D*3B

$GPGGA,155024.000,4239.7606,N,02322.4002,E,2,05,2.78,582.1,M,36.7,M,0000,0000*60

$GPGSA,A,3,20,10,29,15,26,,,,,,,,4.25,2.78,3.21*04

$GPRMC,155024.000,A,4239.7606,N,02322.4002,E,0.17,317.97,150519,,,D*64

$GPVTG,317.97,T,,M,0.17,N,0.31,K,D*37

$GPGGA,155025.000,4239.7607,N,02322.4002,E,2,05,2.34,582.1,M,36.7,M,0000,0000*68

$GPGSA,A,3,20,10,29,15,26,,,,,,,,2.53,2.34,0.95*07

$GPRMC,155025.000,A,4239.7607,N,02322.4002,E,0.19,311.81,150519,,,D*6B

$GPVTG,311.81,T,,M,0.19,N,0.34,K,D*3D

$GPGGA,155026.000,4239.7607,N,02322.4001,E,2,05,2.34,582.1,M,36.7,M,0000,0000*68

$GPGSA,A,3,20,10,29,15,26,,,,,,,,2.53,2.34,0.95*07

$GPRMC,155026.000,A,4239.7607,N,02322.4001,E,0.24,334.38,150519,,,D*60

$GPVTG,334.38,T,,M,0.24,N,0.45,K,D*30

$GPGGA,155027.000,4239.7607,N,02322.4001,E,2,05,2.34,582.1,M,36.7,M,0000,0000*69

$GPGSA,A,3,20,10,29,15,26,,,,,,,,2.53,2.34,0.95*07

$GPGSV,3,1,12,20,64,145,28,21,62,048,,16,59,277,,26,55,218,23*7E

$GPGSV,3,2,12,10,42,177,24,36,40,168,34,27,36,305,20,15,14,075,41*70

$GPGSV,3,3,12,29,13,108,39,08,04,299,,13,04,044,,07,01,331,*7F

$GPRMC,155027.000,A,4239.7607,N,02322.4001,E,0.20,345.40,150519,,,D*6C

$GPVTG,345.40,T,,M,0.20,N,0.37,K,D*38

$GPGGA,155028.000,4239.7608,N,02322.4001,E,2,05,2.78,582.1,M,36.7,M,0000,0000*61

$GPGSA,A,3,20,10,29,15,26,,,,,,,,4.25,2.78,3.21*04

$GPRMC,155028.000,A,4239.7608,N,02322.4001,E,0.25,335.40,150519,,,D*6E

$GPVTG,335.40,T,,M,0.25,N,0.46,K,D*3C

$GPGGA,155029.000,4239.7609,N,02322.4000,E,2,05,2.34,582.1,M,36.7,M,0000,0000*68

$GPGSA,A,3,20,10,29,15,26,,,,,,,,2.53,2.34,0.95*07

$GPRMC,155029.000,A,4239.7609,N,02322.4000,E,0.15,290.87,150519,,,D*69

$GPVTG,290.87,T,,M,0.15,N,0.27,K,D*3D

$GPGGA,155030.000,4239.7609,N,02322.4000,E,2,05,2.34,582.1,M,36.7,M,0000,0000*60

$GPGSA,A,3,20,10,29,15,26,,,,,,,,2.53,2.34,0.95*07

$GPRMC,155030.000,A,4239.7609,N,02322.4000,E,0.05,50.88,150519,,,D*51

$GPVTG,50.88,T,,M,0.05,N,0.10,K,D*09

$GPGGA,155031.000,4239.7609,N,02322.4000,E,2,05,2.34,582.2,M,36.7,M,0000,0000*62

$GPGSA,A,3,20,10,29,15,26,,,,,,,,2.53,2.34,0.95*07

$GPRMC,155031.000,A,4239.7609,N,02322.4000,E,0.10,11.94,150519,,,D*5C

$GPVTG,11.94,T,,M,0.10,N,0.18,K,D*0D

$GPGGA,155032.000,4239.7609,N,02322.4000,E,2,05,2.78,582.2,M,36.7,M,0000,0000*69

$GPGSA,A,3,20,10,29,15,26,,,,,,,,4.24,2.78,3.20*04

$GPGSV,3,1,12,20,64,145,26,21,62,048,,16,59,277,,26,55,218,21*72

$GPGSV,3,2,12,10,42,177,24,36,40,168,33,27,36,305,19,15,14,075,42*7E

$GPGSV,3,3,12,29,13,108,39,08,04,299,,13,04,044,,07,01,331,*7F

$GPRMC,155032.000,A,4239.7609,N,02322.4000,E,0.20,134.77,150519,,,D*67

$GPVTG,134.77,T,,M,0.20,N,0.37,K,D*38

$GPGGA,155033.000,4239.7609,N,02322.4001,E,2,05,2.34,582.2,M,36.7,M,0000,0000*61

$GPGSA,A,3,20,10,29,15,26,,,,,,,,2.53,2.34,0.95*07

$GPRMC,155033.000,A,4239.7609,N,02322.4001,E,0.22,143.00,150519,,,D*65

$GPVTG,143.00,T,,M,0.22,N,0.41,K,D*3B

$GPGGA,155034.000,4239.7608,N,02322.4001,E,2,05,2.34,582.2,M,36.7,M,0000,0000*67

$GPGSA,A,3,20,10,29,15,26,,,,,,,,2.52,2.34,0.95*06

$GPRMC,155034.000,A,4239.7608,N,02322.4001,E,0.11,160.17,150519,,,D*64

$GPVTG,160.17,T,,M,0.11,N,0.20,K,D*3B

$GPGGA,155035.000,4239.7608,N,02322.4002,E,2,05,2.34,582.2,M,36.7,M,0000,0000*65

$GPGSA,A,3,20,10,29,15,26,,,,,,,,2.53,2.34,0.95*07

$GPRMC,155035.000,A,4239.7608,N,02322.4002,E,0.06,155.09,150519,,,D*69

$GPVTG,155.09,T,,M,0.06,N,0.12,K,D*35

$GPGGA,155036.000,4239.7608,N,02322.4002,E,2,05,2.34,582.2,M,36.7,M,0000,0000*66

$GPGSA,A,3,20,10,29,15,26,,,,,,,,2.53,2.34,0.95*07

$GPRMC,155036.000,A,4239.7608,N,02322.4002,E,0.20,205.94,150519,,,D*6C

$GPVTG,205.94,T,,M,0.20,N,0.38,K,D*3B

$GPGGA,155037.000,4239.7607,N,02322.4002,E,2,05,2.34,582.2,M,36.7,M,0000,0000*68

$GPGSA,A,3,20,10,29,15,26,,,,,,,,2.53,2.34,0.95*07

$GPGSV,3,1,12,20,64,145,27,21,62,048,,16,59,277,,26,55,218,23*71

$GPGSV,3,2,12,10,42,177,26,36,40,168,33,27,36,305,19,15,14,074,42*7D

$GPGSV,3,3,12,29,13,108,38,08,04,299,,13,04,044,,07,01,331,*7E

$GPRMC,155037.000,A,4239.7607,N,02322.4002,E,0.21,172.63,150519,,,D*68

$GPVTG,172.63,T,,M,0.21,N,0.39,K,D*30

$GPGGA,155038.000,4239.7606,N,02322.4002,E,2,05,2.34,582.2,M,36.7,M,0000,0000*66

$GPGSA,A,3,20,10,29,15,26,,,,,,,,2.53,2.34,0.95*07

$GPRMC,155038.000,A,4239.7606,N,02322.4002,E,0.18,154.57,150519,,,D*6F

$GPVTG,154.57,T,,M,0.18,N,0.34,K,D*34

$GPGGA,155039.000,4239.7606,N,02322.4002,E,2,05,2.34,582.2,M,36.7,M,0000,0000*67

$GPGSA,A,3,20,10,29,15,26,,,,,,,,2.53,2.34,0.95*07

$GPRMC,155039.000,A,4239.7606,N,02322.4002,E,0.23,142.16,150519,,,D*64

$GPVTG,142.16,T,,M,0.23,N,0.42,K,D*3F

$GPGGA,155040.000,4239.7605,N,02322.4003,E,2,05,2.34,582.2,M,36.7,M,0000,0000*6B

$GPGSA,A,3,20,10,29,15,26,,,,,,,,2.53,2.34,0.95*07

$GPRMC,155040.000,A,4239.7605,N,02322.4003,E,0.27,132.74,150519,,,D*6F

$GPVTG,132.74,T,,M,0.27,N,0.49,K,D*33

$GPGGA,155041.000,4239.7605,N,02322.4004,E,2,05,2.34,582.2,M,36.7,M,0000,0000*6D

$GPGSA,A,3,20,10,29,15,26,,,,,,,,2.53,2.34,0.95*07

$GPRMC,155041.000,A,4239.7605,N,02322.4004,E,0.18,176.61,150519,,,D*61

$GPVTG,176.61,T,,M,0.18,N,0.34,K,D*31

$GPGGA,155042.000,4239.7604,N,02322.4004,E,2,05,2.34,582.2,M,36.7,M,0000,0000*6F

$GPGSA,A,3,20,10,29,15,26,,,,,,,,2.53,2.34,0.95*07

$GPGSV,3,1,12,20,64,145,27,21,62,048,,16,59,277,,26,55,218,23*71

$GPGSV,3,2,12,10,42,177,28,36,40,168,33,27,36,305,22,15,14,074,41*78

$GPGSV,3,3,12,29,13,108,37,08,04,299,,13,04,044,,07,01,331,*71

$GPRMC,155042.000,A,4239.7604,N,02322.4004,E,0.10,137.43,150519,,,D*6E

$GPVTG,137.43,T,,M,0.10,N,0.18,K,D*32

$GPGGA,155043.000,4239.7604,N,02322.4004,E,2,05,2.34,582.2,M,36.7,M,0000,0000*6E

$GPGSA,A,3,20,10,29,15,26,,,,,,,,2.53,2.34,0.95*07

$GPRMC,155043.000,A,4239.7604,N,02322.4004,E,0.07,133.60,150519,,,D*6C

$GPVTG,133.60,T,,M,0.07,N,0.14,K,D*3D

$GPGGA,155044.000,4239.7604,N,02322.4004,E,2,05,2.34,582.2,M,36.7,M,0000,0000*69

$GPGSA,A,3,20,10,29,15,26,,,,,,,,2.53,2.34,0.95*07

$GPRMC,155044.000,A,4239.7604,N,02322.4004,E,0.09,68.52,150519,,,D*5B

$GPVTG,68.52,T,,M,0.09,N,0.17,K,D*0E

$GPGGA,155045.000,4239.7604,N,02322.4005,E,2,05,2.34,582.2,M,36.7,M,0000,0000*69

$GPGSA,A,3,20,10,29,15,26,,,,,,,,2.53,2.34,0.95*07

$GPRMC,155045.000,A,4239.7604,N,02322.4005,E,0.28,23.49,150519,,,D*5D

$GPVTG,23.49,T,,M,0.28,N,0.52,K,D*09

$GPGGA,155046.000,4239.7605,N,02322.4005,E,2,05,2.34,582.2,M,36.7,M,0000,0000*6B

$GPGSA,A,3,20,10,29,15,26,,,,,,,,2.52,2.34,0.95*06

$GPRMC,155046.000,A,4239.7605,N,02322.4005,E,0.13,125.10,150519,,,D*6C

$GPVTG,125.10,T,,M,0.13,N,0.24,K,D*3B

$GPGGA,155047.000,4239.7604,N,02322.4006,E,2,05,2.34,582.2,M,36.7,M,0000,0000*68

$GPGSA,A,3,20,10,29,15,26,,,,,,,,2.53,2.34,0.95*07

$GPGSV,3,1,12,20,64,145,26,21,62,048,,16,59,277,,26,54,217,22*7F

$GPGSV,3,2,12,10,42,177,30,36,40,168,33,27,36,305,22,15,14,074,41*71

$GPGSV,3,3,12,29,13,108,37,08,04,299,,13,04,044,,07,01,331,*71

$GPRMC,155047.000,A,4239.7604,N,02322.4006,E,0.38,118.05,150519,,,D*6C

$GPVTG,118.05,T,,M,0.38,N,0.70,K,D*39

$GPGGA,155048.000,4239.7604,N,02322.4007,E,2,05,2.34,582.2,M,36.7,M,0000,0000*66

$GPGSA,A,3,20,10,29,15,26,,,,,,,,2.53,2.34,0.95*07

$GPRMC,155048.000,A,4239.7604,N,02322.4007,E,0.21,89.78,150519,,,D*59

$GPVTG,89.78,T,,M,0.21,N,0.40,K,D*01

$GPGGA,155049.000,4239.7604,N,02322.4008,E,2,05,2.34,582.2,M,36.7,M,0000,0000*68

$GPGSA,A,3,20,10,29,15,26,,,,,,,,2.52,2.34,0.95*06

$GPRMC,155049.000,A,4239.7604,N,02322.4008,E,0.17,102.62,150519,,,D*6B

$GPVTG,102.62,T,,M,0.17,N,0.32,K,D*38

$GPGGA,155050.000,4239.7604,N,02322.4009,E,2,05,2.34,582.2,M,36.7,M,0000,0000*61

$GPGSA,A,3,20,10,29,15,26,,,,,,,,2.53,2.34,0.95*07

$GPRMC,155050.000,A,4239.7604,N,02322.4009,E,0.36,74.59,150519,,,D*59

$GPVTG,74.59,T,,M,0.36,N,0.66,K,D*02

$GPGGA,155051.000,4239.7604,N,02322.4010,E,2,05,2.34,582.2,M,36.7,M,0000,0000*68

$GPGSA,A,3,20,10,29,15,26,,,,,,,,2.53,2.34,0.95*07

$GPRMC,155051.000,A,4239.7604,N,02322.4010,E,0.41,84.32,150519,,,D*52

$GPVTG,84.32,T,,M,0.41,N,0.77,K,D*00

$GPGGA,155052.000,4239.7604,N,02322.4012,E,2,05,2.34,582.2,M,36.7,M,0000,0000*69

$GPGSA,A,3,20,10,29,15,26,,,,,,,,2.53,2.34,0.95*07

$GPGSV,3,1,12,20,64,145,24,21,62,048,,16,59,277,,26,54,217,19*75

$GPGSV,3,2,12,10,42,177,30,36,40,168,33,27,36,305,22,15,14,074,41*71

$GPGSV,3,3,12,29,13,108,38,08,04,299,,13,04,044,,07,01,331,*7E

$GPRMC,155052.000,A,4239.7604,N,02322.4012,E,0.19,59.50,150519,,,D*5A

$GPVTG,59.50,T,,M,0.19,N,0.35,K,D*0F

$GPGGA,155053.000,4239.7605,N,02322.4012,E,2,05,2.34,582.2,M,36.7,M,0000,0000*69

$GPGSA,A,3,20,10,29,15,26,,,,,,,,2.53,2.34,0.95*07

$GPRMC,155053.000,A,4239.7605,N,02322.4012,E,0.28,80.08,150519,,,D*51

$GPVTG,80.08,T,,M,0.28,N,0.51,K,D*06

$GPGGA,155054.000,4239.7605,N,02322.4014,E,2,05,2.34,582.2,M,36.7,M,0000,0000*68

$GPGSA,A,3,20,10,29,15,26,,,,,,,,2.53,2.34,0.95*07

$GPRMC,155054.000,A,4239.7605,N,02322.4014,E,0.19,69.14,150519,,,D*58

$GPVTG,69.14,T,,M,0.19,N,0.35,K,D*0C

$GPGGA,155055.000,4239.7605,N,02322.4014,E,2,05,2.34,582.2,M,36.7,M,0000,0000*69

$GPGSA,A,3,20,10,29,15,26,,,,,,,,2.53,2.34,0.95*07

$GPRMC,155055.000,A,4239.7605,N,02322.4014,E,0.20,339.53,150519,,,D*66

$GPVTG,339.53,T,,M,0.20,N,0.36,K,D*30

$GPGGA,155056.000,4239.7605,N,02322.4014,E,2,05,2.34,582.3,M,36.7,M,0000,0000*6B

$GPGSA,A,3,20,10,29,15,26,,,,,,,,2.53,2.34,0.95*07

$GPRMC,155056.000,A,4239.7605,N,02322.4014,E,0.08,306.62,150519,,,D*61

$GPVTG,306.62,T,,M,0.08,N,0.14,K,D*34

$GPGGA,155057.000,4239.7605,N,02322.4014,E,2,05,2.34,582.3,M,36.7,M,0000,0000*6A

$GPGSA,A,3,20,10,29,15,26,,,,,,,,2.53,2.34,0.95*07

$GPGSV,3,1,12,20,64,145,24,21,62,048,,16,59,277,,26,54,217,16*7A

$GPGSV,3,2,12,10,42,177,31,36,40,168,33,27,36,305,22,15,14,074,41*70

$GPGSV,3,3,12,29,13,108,38,08,04,299,,13,04,044,,07,01,331,*7E

$GPRMC,155057.000,A,4239.7605,N,02322.4014,E,0.21,343.19,150519,,,D*66

$GPVTG,343.19,T,,M,0.21,N,0.39,K,D*3D

$GPGGA,155058.000,4239.7606,N,02322.4014,E,2,05,2.34,582.3,M,36.7,M,0000,0000*66

$GPGSA,A,3,20,10,29,15,26,,,,,,,,2.52,2.34,0.95*06

$GPRMC,155058.000,A,4239.7606,N,02322.4014,E,0.04,328.07,150519,,,D*6F

$GPVTG,328.07,T,,M,0.04,N,0.07,K,D*35

$GPGGA,155059.000,4239.7606,N,02322.4014,E,2,05,2.34,582.3,M,36.7,M,0000,0000*67

$GPGSA,A,3,20,10,29,15,26,,,,,,,,2.53,2.34,0.95*07

$GPRMC,155059.000,A,4239.7606,N,02322.4014,E,0.32,29.91,150519,,,D*56

$GPVTG,29.91,T,,M,0.32,N,0.60,K,D*0C

$GPGGA,155100.000,4239.7607,N,02322.4015,E,2,05,2.34,582.3,M,36.7,M,0000,0000*6A

$GPGSA,A,3,20,10,29,15,26,,,,,,,,2.53,2.34,0.95*07

$GPRMC,155100.000,A,4239.7607,N,02322.4015,E,0.17,327.17,150519,,,D*6F

$GPVTG,327.17,T,,M,0.17,N,0.31,K,D*3C

$GPGGA,155101.000,4239.7607,N,02322.4014,E,2,05,2.34,582.3,M,36.7,M,0000,0000*6A

$GPGSA,A,3,20,10,29,15,26,,,,,,,,2.52,2.34,0.95*06

$GPRMC,155101.000,A,4239.7607,N,02322.4014,E,0.15,253.18,150519,,,D*60

$GPVTG,253.18,T,,M,0.15,N,0.28,K,D*3B

$GPGGA,155102.000,4239.7607,N,02322.4014,E,2,05,2.34,582.3,M,36.7,M,0000,0000*69

$GPGSA,A,3,20,10,29,15,26,,,,,,,,2.53,2.34,0.95*07

$GPGSV,3,1,12,20,64,145,24,21,62,048,,16,59,277,,26,54,217,14*78

$GPGSV,3,2,12,10,42,177,31,36,40,168,33,27,36,305,24,15,14,074,41*76

$GPGSV,3,3,12,29,13,108,36,08,04,299,,13,04,044,,07,01,331,*70

$GPRMC,155102.000,A,4239.7607,N,02322.4014,E,0.10,270.48,150519,,,D*62

$GPVTG,270.48,T,,M,0.10,N,0.19,K,D*38

$GPGGA,155103.000,4239.7607,N,02322.4013,E,2,05,2.34,582.3,M,36.7,M,0000,0000*6F

$GPGSA,A,3,20,10,29,15,26,,,,,,,,2.52,2.34,0.95*06

$GPRMC,155103.000,A,4239.7607,N,02322.4013,E,0.11,164.38,150519,,,D*64

$GPVTG,164.38,T,,M,0.11,N,0.20,K,D*32

$GPGGA,155104.000,4239.7607,N,02322.4014,E,2,05,2.34,582.3,M,36.7,M,0000,0000*6F

$GPGSA,A,3,20,10,29,15,26,,,,,,,,2.52,2.34,0.95*06

$GPRMC,155104.000,A,4239.7607,N,02322.4014,E,0.19,93.12,150519,,,D*5D

$GPVTG,93.12,T,,M,0.19,N,0.35,K,D*0F

$GPGGA,155105.000,4239.7607,N,02322.4014,E,2,05,2.34,582.3,M,36.7,M,0000,0000*6E

$GPGSA,A,3,20,10,29,15,26,,,,,,,,2.52,2.34,0.95*06

$GPRMC,155105.000,A,4239.7607,N,02322.4014,E,0.16,31.20,150519,,,D*5A

$GPVTG,31.20,T,,M,0.16,N,0.29,K,D*04

$GPGGA,155106.000,4239.7607,N,02322.4015,E,2,05,2.34,582.3,M,36.7,M,0000,0000*6C

$GPGSA,A,3,20,10,29,15,26,,,,,,,,2.53,2.34,0.95*07

$GPRMC,155106.000,A,4239.7607,N,02322.4015,E,0.22,29.62,150519,,,D*50

$GPVTG,29.62,T,,M,0.22,N,0.40,K,D*03

$GPGGA,155107.000,4239.7607,N,02322.4015,E,2,05,2.34,582.3,M,36.7,M,0000,0000*6D

$GPGSA,A,3,20,10,29,15,26,,,,,,,,2.53,2.34,0.95*07

$GPGSV,3,1,12,20,64,145,24,21,62,048,,16,59,277,,26,54,217,13*7F

$GPGSV,3,2,12,10,42,177,31,36,40,168,34,27,36,305,23,15,14,074,41*76

$GPGSV,3,3,12,29,13,108,36,08,04,299,,13,04,044,,07,01,331,*70

$GPRMC,155107.000,A,4239.7607,N,02322.4015,E,0.25,16.63,150519,,,D*5B

$GPVTG,16.63,T,,M,0.25,N,0.47,K,D*0E

$GPGGA,155108.000,4239.7608,N,02322.4016,E,2,05,2.34,582.3,M,36.7,M,0000,0000*6E

$GPGSA,A,3,20,10,29,15,26,,,,,,,,2.52,2.34,0.95*06

$GPRMC,155108.000,A,4239.7608,N,02322.4016,E,0.29,48.48,150519,,,D*56

$GPVTG,48.48,T,,M,0.29,N,0.54,K,D*02

$GPGGA,155109.000,4239.7608,N,02322.4017,E,2,05,2.34,582.3,M,36.7,M,0000,0000*6E

$GPGSA,A,3,20,10,29,15,26,,,,,,,,2.53,2.34,0.95*07

$GPRMC,155109.000,A,4239.7608,N,02322.4017,E,0.26,87.15,150519,,,D*52

$GPVTG,87.15,T,,M,0.26,N,0.48,K,D*0B

$GPGGA,155110.000,4239.7609,N,02322.4018,E,2,05,2.34,582.3,M,36.7,M,0000,0000*68

$GPGSA,A,3,20,10,29,15,26,,,,,,,,2.52,2.34,0.95*06

$GPRMC,155110.000,A,4239.7609,N,02322.4018,E,0.27,49.67,150519,,,D*52

$GPVTG,49.67,T,,M,0.27,N,0.50,K,D*04

$GPGGA,155111.000,4239.7609,N,02322.4018,E,2,05,2.34,582.3,M,36.7,M,0000,0000*69

$GPGSA,A,3,20,10,29,15,26,,,,,,,,2.52,2.34,0.95*06

$GPRMC,155111.000,A,4239.7609,N,02322.4018,E,0.15,27.84,150519,,,D*57

$GPVTG,27.84,T,,M,0.15,N,0.28,K,D*0F

$GPGGA,155112.000,4239.7609,N,02322.4019,E,2,05,2.34,582.3,M,36.7,M,0000,0000*6B

$GPGSA,A,3,20,10,29,15,26,,,,,,,,2.53,2.34,0.95*07

$GPGSV,3,1,12,20,64,145,26,21,62,048,,16,59,276,,26,54,217,13*7C

$GPGSV,3,2,12,10,42,177,30,36,40,168,34,27,36,305,21,15,14,074,42*76

$GPGSV,3,3,12,29,13,108,37,08,04,299,,13,04,044,,07,01,331,*71

$GPRMC,155112.000,A,4239.7609,N,02322.4019,E,0.19,328.44,150519,,,D*69

$GPVTG,328.44,T,,M,0.19,N,0.36,K,D*3C

$GPGGA,155113.000,4239.7610,N,02322.4018,E,2,05,2.34,582.3,M,36.7,M,0000,0000*63

$GPGSA,A,3,20,10,29,15,26,,,,,,,,2.52,2.34,0.95*06

$GPRMC,155113.000,A,4239.7610,N,02322.4018,E,0.11,276.96,150519,,,D*6C

$GPVTG,276.96,T,,M,0.11,N,0.20,K,D*36

$GPGGA,155114.000,4239.7610,N,02322.4018,E,2,05,2.34,582.3,M,36.7,M,0000,0000*64

$GPGSA,A,3,20,10,29,15,26,,,,,,,,2.52,2.34,0.95*06

$GPRMC,155114.000,A,4239.7610,N,02322.4018,E,0.28,297.96,150519,,,D*6E

$GPVTG,297.96,T,,M,0.28,N,0.51,K,D*35

$GPGGA,155115.000,4239.7610,N,02322.4017,E,2,05,2.34,582.3,M,36.7,M,0000,0000*6A

$GPGSA,A,3,20,10,29,15,26,,,,,,,,2.52,2.34,0.95*06

$GPRMC,155115.000,A,4239.7610,N,02322.4017,E,0.22,319.27,150519,,,D*67

$GPVTG,319.27,T,,M,0.22,N,0.41,K,D*33

$GPGGA,155116.000,4239.7610,N,02322.4017,E,2,05,2.34,582.3,M,36.7,M,0000,0000*69

$GPGSA,A,3,20,10,29,15,26,,,,,,,,2.52,2.34,0.95*06

$GPRMC,155116.000,A,4239.7610,N,02322.4017,E,0.06,245.06,150519,,,D*69

$GPVTG,245.06,T,,M,0.06,N,0.11,K,D*3B

$GPGGA,155117.000,4239.7610,N,02322.4016,E,2,05,2.34,582.3,M,36.7,M,0000,0000*69

$GPGSA,A,3,20,10,29,15,26,,,,,,,,2.52,2.34,0.95*06

$GPGSV,3,1,12,20,64,144,26,21,62,048,,16,59,276,,26,54,217,16*78

$GPGSV,3,2,12,10,42,177,31,36,40,168,34,27,36,305,19,15,14,074,42*7C

$GPGSV,3,3,12,29,13,108,37,08,04,299,,13,04,044,,07,01,331,*71

$GPRMC,155117.000,A,4239.7610,N,02322.4016,E,0.09,333.23,150519,,,D*61

$GPVTG,333.23,T,,M,0.09,N,0.16,K,D*34

$GPGGA,155118.000,4239.7611,N,02322.4016,E,2,05,2.34,582.3,M,36.7,M,0000,0000*67

$GPGSA,A,3,20,10,29,15,26,,,,,,,,2.52,2.34,0.95*06

$GPRMC,155118.000,A,4239.7611,N,02322.4016,E,0.11,341.94,150519,,,D*6F

$GPVTG,341.94,T,,M,0.11,N,0.21,K,D*30

$GPGGA,155119.000,4239.7611,N,02322.4016,E,2,05,2.34,582.3,M,36.7,M,0000,0000*66

$GPGSA,A,3,20,10,29,15,26,,,,,,,,2.53,2.34,0.95*07

$GPRMC,155119.000,A,4239.7611,N,02322.4016,E,0.12,237.64,150519,,,D*62

$GPVTG,237.64,T,,M,0.12,N,0.23,K,D*3E

$GPGGA,155120.000,4239.7611,N,02322.4016,E,2,05,2.34,582.3,M,36.7,M,0000,0000*6C

$GPGSA,A,3,20,10,29,15,26,,,,,,,,2.52,2.34,0.95*06

$GPRMC,155120.000,A,4239.7611,N,02322.4016,E,0.19,274.23,150519,,,D*67

$GPVTG,274.23,T,,M,0.19,N,0.36,K,D*35

$GPGGA,155121.000,4239.7611,N,02322.4015,E,2,05,2.34,582.3,M,36.7,M,0000,0000*6E

$GPGSA,A,3,20,10,29,15,26,,,,,,,,2.52,2.34,0.95*06

$GPRMC,155121.000,A,4239.7611,N,02322.4015,E,0.15,239.34,150519,,,D*66

$GPVTG,239.34,T,,M,0.15,N,0.28,K,D*39

$GPGGA,155122.000,4239.7610,N,02322.4015,E,2,05,2.34,582.3,M,36.7,M,0000,0000*6C

$GPGSA,A,3,20,10,29,15,26,,,,,,,,2.52,2.34,0.95*06

$GPGSV,3,1,12,20,64,144,27,21,62,048,,16,59,276,,26,54,217,16*79

$GPGSV,3,2,12,10,42,177,32,36,40,168,33,27,36,305,19,15,14,074,42*78

$GPGSV,3,3,12,29,13,108,37,08,04,299,,13,04,044,,07,01,331,*71

$GPRMC,155122.000,A,4239.7610,N,02322.4015,E,0.21,304.87,150519,,,D*64

$GPVTG,304.87,T,,M,0.21,N,0.40,K,D*37

$GPGGA,155123.000,4239.7611,N,02322.4014,E,2,05,2.34,582.3,M,36.7,M,0000,0000*6D

$GPGSA,A,3,20,10,29,15,26,,,,,,,,2.52,2.34,0.95*06

$GPRMC,155123.000,A,4239.7611,N,02322.4014,E,0.15,290.29,150519,,,D*6A

$GPVTG,290.29,T,,M,0.15,N,0.29,K,D*37

$GPGGA,155124.000,4239.7611,N,02322.4014,E,2,05,2.34,582.3,M,36.7,M,0000,0000*6A

$GPGSA,A,3,20,10,29,15,26,,,,,,,,2.52,2.34,0.95*06

$GPRMC,155124.000,A,4239.7611,N,02322.4014,E,0.15,286.51,150519,,,D*65

$GPVTG,286.51,T,,M,0.15,N,0.27,K,D*31

$GPGGA,155125.000,4239.7611,N,02322.4013,E,2,05,2.34,582.3,M,36.7,M,0000,0000*6C

$GPGSA,A,3,20,10,29,15,26,,,,,,,,2.52,2.34,0.95*06

$GPRMC,155125.000,A,4239.7611,N,02322.4013,E,0.17,279.77,150519,,,D*65

$GPVTG,279.77,T,,M,0.17,N,0.32,K,D*33

$GPGGA,155126.000,4239.7611,N,02322.4013,E,2,05,2.34,582.3,M,36.7,M,0000,0000*6F

$GPGSA,A,3,20,10,29,15,26,,,,,,,,2.52,2.34,0.95*06

$GPRMC,155126.000,A,4239.7611,N,02322.4013,E,0.12,282.97,150519,,,D*69

$GPVTG,282.97,T,,M,0.12,N,0.22,K,D*3D

$GPGGA,155127.000,4239.7611,N,02322.4012,E,2,05,2.34,582.4,M,36.7,M,0000,0000*68

$GPGSA,A,3,20,10,29,15,26,,,,,,,,2.52,2.34,0.95*06

$GPGSV,3,1,12,20,64,144,27,21,62,048,,16,59,276,,26,54,217,16*79

$GPGSV,3,2,12,10,42,177,32,36,40,168,34,27,37,305,18,15,14,074,42*7F

$GPGSV,3,3,12,29,13,108,35,08,04,299,,13,04,044,,07,01,331,*73

$GPRMC,155127.000,A,4239.7611,N,02322.4012,E,0.33,294.85,150519,,,D*6E

$GPVTG,294.85,T,,M,0.33,N,0.61,K,D*3D

$GPGGA,155128.000,4239.7611,N,02322.4011,E,2,05,2.34,582.4,M,36.7,M,0000,0000*64

$GPGSA,A,3,20,10,29,15,26,,,,,,,,2.52,2.34,0.95*06

$GPRMC,155128.000,A,4239.7611,N,02322.4011,E,0.21,293.65,150519,,,D*68

$GPVTG,293.65,T,,M,0.21,N,0.39,K,D*3A

$GPGGA,155129.000,4239.7612,N,02322.4010,E,2,05,2.34,582.4,M,36.7,M,0000,0000*67

$GPGSA,A,3,20,10,29,15,26,,,,,,,,2.52,2.34,0.95*06

$GPRMC,155129.000,A,4239.7612,N,02322.4010,E,0.42,326.68,150519,,,D*6C

$GPVTG,326.68,T,,M,0.42,N,0.78,K,D*38

$GPGGA,155130.000,4239.7612,N,02322.4010,E,2,05,2.34,582.4,M,36.7,M,0000,0000*6F

$GPGSA,A,3,20,10,29,15,26,,,,,,,,2.52,2.34,0.95*06

$GPRMC,155130.000,A,4239.7612,N,02322.4010,E,0.26,324.65,150519,,,D*69

$GPVTG,324.65,T,,M,0.26,N,0.49,K,D*37

$GPGGA,155131.000,4239.7613,N,02322.4009,E,2,05,2.34,582.4,M,36.7,M,0000,0000*67

$GPGSA,A,3,20,10,29,15,26,,,,,,,,2.52,2.34,0.95*06

$GPRMC,155131.000,A,4239.7613,N,02322.4009,E,0.30,318.65,150519,,,D*69

$GPVTG,318.65,T,,M,0.30,N,0.56,K,D*31

$GPGGA,155132.000,4239.7613,N,02322.4008,E,2,05,2.34,582.4,M,36.7,M,0000,0000*65

$GPGSA,A,3,20,10,29,15,26,,,,,,,,2.52,2.34,0.95*06

$GPGSV,3,1,12,20,64,144,28,21,62,048,,16,59,276,,26,54,217,17*77

$GPGSV,3,2,12,10,42,177,31,36,40,168,33,27,37,305,18,15,14,074,42*7B

$GPGSV,3,3,12,29,13,108,36,08,04,299,,13,04,044,,07,01,331,*70

$GPRMC,155132.000,A,4239.7613,N,02322.4008,E,0.29,298.42,150519,,,D*6F

$GPVTG,298.42,T,,M,0.29,N,0.53,K,D*30

$GPGGA,155133.000,4239.7614,N,02322.4007,E,2,05,2.34,582.4,M,36.7,M,0000,0000*6C

$GPGSA,A,3,20,10,29,15,26,,,,,,,,2.52,2.34,0.95*06

$GPRMC,155133.000,A,4239.7614,N,02322.4007,E,0.39,302.22,150519,,,D*63

$GPVTG,302.22,T,,M,0.39,N,0.73,K,D*37

$GPGGA,155134.000,4239.7614,N,02322.4006,E,2,05,2.34,582.4,M,36.7,M,0000,0000*6A

$GPGSA,A,3,20,10,29,15,26,,,,,,,,2.52,2.34,0.95*06

$GPRMC,155134.000,A,4239.7614,N,02322.4006,E,0.29,295.75,150519,,,D*69

$GPVTG,295.75,T,,M,0.29,N,0.53,K,D*39

$GPGGA,155135.000,4239.7615,N,02322.4005,E,2,05,2.34,582.4,M,36.7,M,0000,0000*69

$GPGSA,A,3,20,10,29,15,26,,,,,,,,2.52,2.34,0.95*06

$GPRMC,155135.000,A,4239.7615,N,02322.4005,E,0.39,293.03,150519,,,D*6C

$GPVTG,293.03,T,,M,0.39,N,0.72,K,D*3C

$GPGGA,155136.000,4239.7615,N,02322.4004,E,2,05,2.34,582.4,M,36.7,M,0000,0000*6B

$GPGSA,A,3,20,10,29,15,26,,,,,,,,2.52,2.34,0.95*06

$GPRMC,155136.000,A,4239.7615,N,02322.4004,E,0.48,315.83,150519,,,D*6F

$GPVTG,315.83,T,,M,0.48,N,0.88,K,D*38

$GPGGA,155137.000,4239.7616,N,02322.4003,E,2,05,2.34,582.4,M,36.7,M,0000,0000*6E

$GPGSA,A,3,20,10,29,15,26,,,,,,,,2.52,2.34,0.95*06

$GPGSV,3,1,12,20,64,144,28,21,62,048,,16,59,276,,26,54,217,20*73

$GPGSV,3,2,12,10,42,177,31,36,40,168,34,27,37,305,19,15,14,074,43*7C

$GPGSV,3,3,12,29,13,108,36,08,04,299,,13,04,044,,07,01,331,*70

$GPRMC,155137.000,A,4239.7616,N,02322.4003,E,0.40,307.73,150519,,,D*6E

$GPVTG,307.73,T,,M,0.40,N,0.73,K,D*38

$GPGGA,155138.000,4239.7617,N,02322.4002,E,2,05,2.34,582.4,M,36.7,M,0000,0000*61

$GPGSA,A,3,20,10,29,15,26,,,,,,,,2.52,2.34,0.95*06

$GPRMC,155138.000,A,4239.7617,N,02322.4002,E,0.40,310.26,150519,,,D*67

$GPVTG,310.26,T,,M,0.40,N,0.74,K,D*39

$GPGGA,155139.000,4239.7617,N,02322.4000,E,2,05,2.34,582.4,M,36.7,M,0000,0000*62

$GPGSA,A,3,20,10,29,15,26,,,,,,,,2.52,2.34,0.95*06

$GPRMC,155139.000,A,4239.7617,N,02322.4000,E,0.26,291.16,150519,,,D*6F

$GPVTG,291.16,T,,M,0.26,N,0.48,K,D*3D

$GPGGA,155140.000,4239.7618,N,02322.3999,E,2,05,2.34,582.4,M,36.7,M,0000,0000*6D

$GPGSA,A,3,20,10,29,15,26,,,,,,,,2.52,2.34,0.95*06

$GPRMC,155140.000,A,4239.7618,N,02322.3999,E,0.30,289.68,150519,,,D*67

$GPVTG,289.68,T,,M,0.30,N,0.56,K,D*35

$GPGGA,155141.000,4239.7618,N,02322.3998,E,2,05,2.34,582.4,M,36.7,M,0000,0000*6D

$GPGSA,A,3,20,10,29,15,26,,,,,,,,2.52,2.34,0.95*06

