
$GPVTG,318.21,T,,M,0.39,N,0.72,K,D*3E

$GPGGA,160259.000,4239.7973,N,02322.3715,E,2,05,2.24,581.2,M,36.7,M,0000,0000*6C

$GPGSA,A,3,20,10,29,15,26,,,,,,,,2.43,2.24,0.94*06

$GPRMC,160259.000,A,4239.7973,N,02322.3715,E,0.44,299.41,150519,,,D*6B

$GPVTG,299.41,T,,M,0.44,N,0.81,K,D*36

$GPGGA,160300.000,4239.7973,N,02322.3713,E,2,05,2.24,581.2,M,36.7,M,0000,0000*67

$GPGSA,A,3,20,10,29,15,26,,,,,,,,2.42,2.24,0.94*07

$GPRMC,160300.000,A,4239.7973,N,02322.3713,E,0.42,306.66,150519,,,D*64

$GPVTG,306.66,T,,M,0.42,N,0.78,K,D*34

$GPGGA,160301.000,4239.7974,N,02322.3712,E,2,05,2.24,581.2,M,36.7,M,0000,0000*60

$GPGSA,A,3,20,10,29,15,26,,,,,,,,2.43,2.24,0.94*06

$GPRMC,160301.000,A,4239.7974,N,02322.3712,E,0.43,307.26,150519,,,D*67

$GPVTG,307.26,T,,M,0.43,N,0.80,K,D*37

$GPGGA,160302.000,4239.7975,N,02322.3711,E,2,05,2.24,581.2,M,36.7,M,0000,0000*61

$GPGSA,A,3,20,10,29,15,26,,,,,,,,2.43,2.24,0.94*06

$GPGSV,3,1,12,20,68,133,34,16,60,265,16,21,57,052,21,26,50,212,24*76

$GPGSV,3,2,12,10,48,176,26,27,41,307,14,36,40,168,34,15,15,069,40*71

$GPGSV,3,3,12,29,09,112,17,08,08,301,19,13,04,039,,07,02,326,*78

$GPRMC,160302.000,A,4239.7975,N,02322.3711,E,0.49,310.53,150519,,,D*68

$GPVTG,310.53,T,,M,0.49,N,0.91,K,D*39

$GPGGA,160303.000,4239.7975,N,02322.3710,E,2,05,2.24,581.2,M,36.7,M,0000,0000*61

$GPGSA,A,3,20,10,29,15,26,,,,,,,,2.43,2.24,0.94*06

$GPRMC,160303.000,A,4239.7975,N,02322.3710,E,0.41,306.42,150519,,,D*67

$GPVTG,306.42,T,,M,0.41,N,0.76,K,D*3F

$GPGGA,160304.000,4239.7976,N,02322.3708,E,2,05,2.24,581.2,M,36.7,M,0000,0000*6C

$GPGSA,A,3,20,10,29,15,26,,,,,,,,2.42,2.24,0.94*07

$GPRMC,160304.000,A,4239.7976,N,02322.3708,E,0.35,336.09,150519,,,D*65

$GPVTG,336.09,T,,M,0.35,N,0.64,K,D*33

$GPGGA,160305.000,4239.7977,N,02322.3708,E,2,05,2.24,581.2,M,36.7,M,0000,0000*6C

$GPGSA,A,3,20,10,29,15,26,,,,,,,,2.43,2.24,0.94*06

$GPRMC,160305.000,A,4239.7977,N,02322.3708,E,0.07,285.58,150519,,,D*69

$GPVTG,285.58,T,,M,0.07,N,0.13,K,D*3F

$GPGGA,160306.000,4239.7977,N,02322.3708,E,2,05,2.24,581.2,M,36.7,M,0000,0000*6F

$GPGSA,A,3,20,10,29,15,26,,,,,,,,2.42,2.24,0.94*07

$GPRMC,160306.000,A,4239.7977,N,02322.3708,E,0.15,150.96,150519,,,D*60

$GPVTG,150.96,T,,M,0.15,N,0.27,K,D*32

$GPGGA,160307.000,4239.7976,N,02322.3708,E,2,05,2.24,581.2,M,36.7,M,0000,0000*6F

$GPGSA,A,3,20,10,29,15,26,,,,,,,,2.42,2.24,0.94*07

$GPGSV,3,1,12,20,68,133,33,16,60,265,14,21,57,052,18,26,49,212,24*71

$GPGSV,3,2,12,10,48,176,28,27,41,308,19,36,40,168,35,15,15,069,40*7C

$GPGSV,3,3,12,29,09,112,23,08,08,301,14,13,04,039,,07,02,326,*72

$GPRMC,160307.000,A,4239.7976,N,02322.3708,E,0.22,120.86,150519,,,D*62

$GPVTG,120.86,T,,M,0.22,N,0.41,K,D*30

$GPGGA,160308.000,4239.7976,N,02322.3709,E,2,05,2.24,581.2,M,36.7,M,0000,0000*61

$GPGSA,A,3,20,10,29,15,26,,,,,,,,2.42,2.24,0.94*07

$GPRMC,160308.000,A,4239.7976,N,02322.3709,E,0.38,117.03,150519,,,D*6E

$GPVTG,117.03,T,,M,0.38,N,0.70,K,D*30

$GPGGA,160309.000,4239.7975,N,02322.3711,E,2,05,2.24,581.2,M,36.7,M,0000,0000*6A

$GPGSA,A,3,20,10,29,15,26,,,,,,,,2.42,2.24,0.94*07

$GPRMC,160309.000,A,4239.7975,N,02322.3711,E,0.44,115.49,150519,,,D*62

$GPVTG,115.49,T,,M,0.44,N,0.82,K,D*3A

$GPGGA,160310.000,4239.7974,N,02322.3712,E,2,05,2.24,581.2,M,36.7,M,0000,0000*60

$GPGSA,A,3,20,10,29,15,26,,,,,,,,2.42,2.24,0.94*07

$GPRMC,160310.000,A,4239.7974,N,02322.3712,E,0.53,105.65,150519,,,D*61

$GPVTG,105.65,T,,M,0.53,N,0.98,K,D*38

$GPGGA,160311.000,4239.7974,N,02322.3714,E,2,05,2.24,581.2,M,36.7,M,0000,0000*67

$GPGSA,A,3,20,10,29,15,26,,,,,,,,2.42,2.24,0.94*07

$GPRMC,160311.000,A,4239.7974,N,02322.3714,E,0.41,130.73,150519,,,D*64

$GPVTG,130.73,T,,M,0.41,N,0.76,K,D*3A

$GPGGA,160312.000,4239.7973,N,02322.3715,E,2,05,2.24,581.2,M,36.7,M,0000,0000*62

$GPGSA,A,3,20,10,29,15,26,,,,,,,,2.42,2.24,0.94*07

$GPGSV,3,1,12,20,68,133,33,16,60,265,15,21,57,052,18,26,49,212,23*77

$GPGSV,3,2,12,10,48,176,26,27,41,308,18,36,40,168,34,15,15,069,40*72

$GPGSV,3,3,12,29,09,112,24,08,08,301,18,13,04,039,,07,02,326,*79

$GPRMC,160312.000,A,4239.7973,N,02322.3715,E,0.41,144.43,150519,,,D*61

$GPVTG,144.43,T,,M,0.41,N,0.75,K,D*39

$GPGGA,160313.000,4239.7972,N,02322.3716,E,2,05,2.24,581.2,M,36.7,M,0000,0000*61

$GPGSA,A,3,20,10,29,15,26,,,,,,,,2.42,2.24,0.94*07

$GPRMC,160313.000,A,4239.7972,N,02322.3716,E,0.47,143.40,150519,,,D*60

$GPVTG,143.40,T,,M,0.47,N,0.87,K,D*36

$GPGGA,160314.000,4239.7971,N,02322.3718,E,2,05,2.23,581.2,M,36.7,M,0000,0000*6C

$GPGSA,A,3,20,10,29,15,26,,,,,,,,2.42,2.23,0.94*00

$GPRMC,160314.000,A,4239.7971,N,02322.3718,E,0.51,149.32,150519,,,D*62

$GPVTG,149.32,T,,M,0.51,N,0.94,K,D*3C

$GPGGA,160315.000,4239.7970,N,02322.3719,E,2,05,2.24,581.2,M,36.7,M,0000,0000*6A

$GPGSA,A,3,20,10,29,15,26,,,,,,,,2.42,2.24,0.94*07

$GPRMC,160315.000,A,4239.7970,N,02322.3719,E,0.52,134.27,150519,,,D*6E

$GPVTG,134.27,T,,M,0.52,N,0.97,K,D*32

$GPGGA,160316.000,4239.7969,N,02322.3720,E,2,05,2.23,581.2,M,36.7,M,0000,0000*6C

$GPGSA,A,3,20,10,29,15,26,,,,,,,,2.42,2.23,0.94*00

$GPRMC,160316.000,A,4239.7969,N,02322.3720,E,0.55,135.32,150519,,,D*6D

$GPVTG,135.32,T,,M,0.55,N,1.02,K,D*3D

$GPGGA,160317.000,4239.7968,N,02322.3722,E,2,05,2.23,581.2,M,36.7,M,0000,0000*6E

$GPGSA,A,3,20,10,29,15,26,,,,,,,,2.42,2.23,0.94*00

$GPGSV,3,1,12,20,68,133,32,16,60,265,18,21,57,052,18,26,49,212,20*78

$GPGSV,3,2,12,10,48,176,26,27,41,308,18,36,40,168,33,15,15,069,40*75

$GPGSV,3,3,12,29,09,112,21,08,08,301,19,13,04,039,,07,02,326,*7D

$GPRMC,160317.000,A,4239.7968,N,02322.3722,E,0.60,145.57,150519,,,D*6D

$GPVTG,145.57,T,,M,0.60,N,1.11,K,D*3D

$GPGGA,160318.000,4239.7964,N,02322.3726,E,2,05,2.23,581.2,M,36.7,M,0000,0000*69

$GPGSA,A,3,20,10,29,15,26,,,,,,,,2.42,2.23,0.94*00

$GPRMC,160318.000,A,4239.7964,N,02322.3726,E,0.61,138.09,150519,,,D*6A

$GPVTG,138.09,T,,M,0.61,N,1.13,K,D*3F

$GPGGA,160319.000,4239.7960,N,02322.3731,E,2,05,2.24,581.2,M,36.7,M,0000,0000*6D

$GPGSA,A,3,20,10,29,15,26,,,,,,,,2.42,2.24,0.94*07

$GPRMC,160319.000,A,4239.7960,N,02322.3731,E,0.66,145.52,150519,,,D*6A

$GPVTG,145.52,T,,M,0.66,N,1.22,K,D*3E

$GPGGA,160320.000,4239.7956,N,02322.3734,E,2,05,2.23,581.2,M,36.7,M,0000,0000*60

$GPGSA,A,3,20,10,29,15,26,,,,,,,,2.42,2.23,0.94*00

$GPRMC,160320.000,A,4239.7956,N,02322.3734,E,0.69,143.52,150519,,,D*69

$GPVTG,143.52,T,,M,0.69,N,1.29,K,D*3C

$GPGGA,160321.000,4239.7953,N,02322.3737,E,2,05,2.23,581.2,M,36.7,M,0000,0000*67

$GPGSA,A,3,20,10,29,15,26,,,,,,,,2.42,2.23,0.94*00

$GPRMC,160321.000,A,4239.7953,N,02322.3737,E,0.71,145.39,150519,,,D*6C

$GPVTG,145.39,T,,M,0.71,N,1.32,K,D*34

$GPGGA,160322.000,4239.7948,N,02322.3742,E,2,05,2.23,581.1,M,36.7,M,0000,0000*6F

$GPGSA,A,3,20,10,29,15,26,,,,,,,,2.42,2.23,0.94*00

$GPGSV,3,1,12,20,68,133,33,16,60,265,18,21,57,052,19,26,49,212,21*79

$GPGSV,3,2,12,10,48,176,26,27,41,308,18,36,40,168,34,15,15,069,41*73

$GPGSV,3,3,12,29,09,112,18,08,09,301,21,13,04,039,,07,02,326,*7D

$GPRMC,160322.000,A,4239.7948,N,02322.3742,E,0.76,143.24,150519,,,D*6A

$GPVTG,143.24,T,,M,0.76,N,1.41,K,D*3D

$GPGGA,160323.000,4239.7945,N,02322.3747,E,2,05,2.23,581.1,M,36.7,M,0000,0000*66

$GPGSA,A,3,20,10,29,15,26,,,,,,,,2.42,2.23,0.94*00

$GPRMC,160323.000,A,4239.7945,N,02322.3747,E,0.78,133.22,150519,,,D*6C

$GPVTG,133.22,T,,M,0.78,N,1.45,K,D*36

$GPGGA,160324.000,4239.7944,N,02322.3748,E,2,05,2.23,581.1,M,36.7,M,0000,0000*6F

$GPGSA,A,3,20,10,29,15,26,,,,,,,,2.42,2.23,0.94*00

$GPRMC,160324.000,A,4239.7944,N,02322.3748,E,0.75,136.28,150519,,,D*67

$GPVTG,136.28,T,,M,0.75,N,1.39,K,D*3F

$GPGGA,160325.000,4239.7942,N,02322.3747,E,2,05,2.23,581.0,M,36.7,M,0000,0000*66

$GPGSA,A,3,20,10,29,15,26,,,,,,,,2.42,2.23,0.94*00

$GPRMC,160325.000,A,4239.7942,N,02322.3747,E,0.73,146.97,150519,,,D*6A

$GPVTG,146.97,T,,M,0.73,N,1.36,K,D*35

$GPGGA,160326.000,4239.7942,N,02322.3747,E,2,05,2.23,581.0,M,36.7,M,0000,0000*65

$GPGSA,A,3,20,10,29,15,26,,,,,,,,2.42,2.23,0.94*00

$GPRMC,160326.000,A,4239.7942,N,02322.3747,E,0.69,144.08,150519,,,D*66

$GPVTG,144.08,T,,M,0.69,N,1.28,K,D*35

$GPGGA,160327.000,4239.7939,N,02322.3751,E,2,05,2.23,580.9,M,36.7,M,0000,0000*67

$GPGSA,A,3,20,10,29,15,26,,,,,,,,2.42,2.23,0.94*00

$GPGSV,3,1,12,20,68,133,34,16,60,265,16,21,57,052,22,26,49,212,22*7B

$GPGSV,3,2,12,10,48,176,26,27,41,308,17,36,40,168,34,15,15,069,41*7C

$GPGSV,3,3,12,29,09,112,16,08,09,301,21,13,04,039,,07,02,326,*73

$GPRMC,160327.000,A,4239.7939,N,02322.3751,E,0.68,138.59,150519,,,D*62

$GPVTG,138.59,T,,M,0.68,N,1.26,K,D*35

$GPGGA,160328.000,4239.7936,N,02322.3755,E,2,05,2.23,580.8,M,36.7,M,0000,0000*62

$GPGSA,A,3,20,10,29,15,26,,,,,,,,2.42,2.23,0.94*00

$GPRMC,160328.000,A,4239.7936,N,02322.3755,E,0.66,138.13,150519,,,D*66

$GPVTG,138.13,T,,M,0.66,N,1.22,K,D*31

$GPGGA,160329.000,4239.7928,N,02322.3764,E,2,05,2.23,580.8,M,36.7,M,0000,0000*6E

$GPGSA,A,3,20,10,29,15,26,,,,,,,,2.42,2.23,0.94*00

$GPRMC,160329.000,A,4239.7928,N,02322.3764,E,0.77,133.59,150519,,,D*6F

$GPVTG,133.59,T,,M,0.77,N,1.42,K,D*32

$GPGGA,160330.000,4239.7919,N,02322.3776,E,2,05,2.23,580.7,M,36.7,M,0000,0000*68

$GPGSA,A,3,20,10,29,15,26,,,,,,,,2.42,2.23,0.94*00

$GPRMC,160330.000,A,4239.7919,N,02322.3776,E,0.88,131.62,150519,,,D*6C

$GPVTG,131.62,T,,M,0.88,N,1.64,K,D*3C

$GPGGA,160331.000,4239.7912,N,02322.3784,E,2,05,2.23,580.6,M,36.7,M,0000,0000*6E

$GPGSA,A,3,20,10,29,15,26,,,,,,,,2.42,2.23,0.94*00

$GPRMC,160331.000,A,4239.7912,N,02322.3784,E,0.95,137.74,150519,,,D*66

$GPVTG,137.74,T,,M,0.95,N,1.75,K,D*31

$GPGGA,160332.000,4239.7906,N,02322.3792,E,2,05,2.23,580.5,M,36.7,M,0000,0000*6C

$GPGSA,A,3,20,10,29,15,26,,,,,,,,2.42,2.23,0.94*00

$GPGSV,3,1,12,20,68,133,34,16,60,264,16,21,57,052,24,26,49,212,22*7C

$GPGSV,3,2,12,10,48,176,26,27,41,308,16,36,40,168,33,15,15,069,41*7A

$GPGSV,3,3,12,29,09,112,19,08,09,301,21,13,04,039,,07,02,326,*7C

$GPRMC,160332.000,A,4239.7906,N,02322.3792,E,0.97,129.90,150519,,,D*60

$GPVTG,129.90,T,,M,0.97,N,1.80,K,D*3C

$GPGGA,160333.000,4239.7902,N,02322.3798,E,2,05,2.23,580.4,M,36.7,M,0000,0000*62

$GPGSA,A,3,20,10,29,15,26,,,,,,,,2.42,2.23,0.94*00

$GPRMC,160333.000,A,4239.7902,N,02322.3798,E,0.99,132.76,150519,,,D*63

$GPVTG,132.76,T,,M,0.99,N,1.84,K,D*34

$GPGGA,160334.000,4239.7900,N,02322.3801,E,2,05,2.23,580.3,M,36.7,M,0000,0000*6F

$GPGSA,A,3,20,10,29,15,26,,,,,,,,2.42,2.23,0.94*00

$GPRMC,160334.000,A,4239.7900,N,02322.3801,E,0.95,132.03,150519,,,D*67

$GPVTG,132.03,T,,M,0.95,N,1.76,K,D*37

$GPGGA,160335.000,4239.7896,N,02322.3806,E,2,05,2.23,580.2,M,36.7,M,0000,0000*66

$GPGSA,A,3,20,10,29,15,26,,,,,,,,2.42,2.23,0.94*00

$GPRMC,160335.000,A,4239.7896,N,02322.3806,E,0.93,134.14,150519,,,D*69

$GPVTG,134.14,T,,M,0.93,N,1.72,K,D*35

$GPGGA,160336.000,4239.7891,N,02322.3812,E,2,05,2.23,580.1,M,36.7,M,0000,0000*64

$GPGSA,A,3,20,10,29,15,26,,,,,,,,2.42,2.23,0.94*00

$GPRMC,160336.000,A,4239.7891,N,02322.3812,E,0.96,139.47,150519,,,D*66

$GPVTG,139.47,T,,M,0.96,N,1.78,K,D*31

$GPGGA,160337.000,4239.7887,N,02322.3816,E,2,05,2.23,580.0,M,36.7,M,0000,0000*67

$GPGSA,A,3,20,10,29,15,26,,,,,,,,2.42,2.23,0.94*00

$GPGSV,3,1,12,20,68,133,34,16,60,264,15,21,57,052,24,26,49,212,22*7F

$GPGSV,3,2,12,10,48,176,27,27,41,308,16,36,40,168,34,15,15,069,41*7C

$GPGSV,3,3,12,29,09,112,22,08,09,301,20,13,04,039,,07,02,326,*75

$GPRMC,160337.000,A,4239.7887,N,02322.3816,E,0.92,136.08,150519,,,D*64

$GPVTG,136.08,T,,M,0.92,N,1.71,K,D*38

$GPGGA,160338.000,4239.7884,N,02322.3820,E,2,05,2.23,580.0,M,36.7,M,0000,0000*6E

$GPGSA,A,3,20,10,29,15,26,,,,,,,,2.42,2.23,0.94*00

$GPRMC,160338.000,A,4239.7884,N,02322.3820,E,0.90,134.68,150519,,,D*6B

$GPVTG,134.68,T,,M,0.90,N,1.67,K,D*39

$GPGGA,160339.000,4239.7879,N,02322.3826,E,2,05,2.23,579.9,M,36.7,M,0000,0000*64

$GPGSA,A,3,20,10,29,15,26,,,,,,,,2.42,2.23,0.94*00

$GPRMC,160339.000,A,4239.7879,N,02322.3826,E,0.89,129.87,150519,,,D*6B

$GPVTG,129.87,T,,M,0.89,N,1.66,K,D*3D

$GPGGA,160340.000,4239.7877,N,02322.3829,E,2,05,2.23,579.8,M,36.7,M,0000,0000*6A

$GPGSA,A,3,20,10,29,15,26,,,,,,,,2.42,2.23,0.94*00

$GPRMC,160340.000,A,4239.7877,N,02322.3829,E,0.82,127.72,150519,,,D*6B

$GPVTG,127.72,T,,M,0.82,N,1.51,K,D*36

$GPGGA,160341.000,4239.7875,N,02322.3832,E,2,05,2.23,579.7,M,36.7,M,0000,0000*6C

$GPGSA,A,3,20,10,29,15,26,,,,,,,,2.42,2.23,0.94*00

$GPRMC,160341.000,A,4239.7875,N,02322.3832,E,0.77,130.54,150519,,,D*6A

$GPVTG,130.54,T,,M,0.77,N,1.43,K,D*3D

$GPGGA,160342.000,4239.7872,N,02322.3836,E,2,05,2.23,579.6,M,36.7,M,0000,0000*6D

$GPGSA,A,3,20,10,29,15,26,,,,,,,,2.42,2.23,0.94*00

$GPGSV,3,1,12,20,68,133,34,16,60,264,12,21,57,052,24,26,49,211,22*7B

$GPGSV,3,2,12,10,48,176,27,27,42,308,18,36,40,168,33,15,15,069,41*76

$GPGSV,3,3,12,29,09,112,21,08,09,301,20,13,04,039,,07,02,326,*76

$GPRMC,160342.000,A,4239.7872,N,02322.3836,E,0.79,134.18,150519,,,D*68

$GPVTG,134.18,T,,M,0.79,N,1.46,K,D*3A

$GPGGA,160343.000,4239.7867,N,02322.3841,E,2,05,2.23,579.5,M,36.7,M,0000,0000*6B

$GPGSA,A,3,20,10,29,15,26,,,,,,,,2.42,2.23,0.94*00

$GPRMC,160343.000,A,4239.7867,N,02322.3841,E,0.85,138.99,150519,,,D*6B

$GPVTG,138.99,T,,M,0.85,N,1.58,K,D*33

$GPGGA,160344.000,4239.7861,N,02322.3848,E,2,05,2.23,579.4,M,36.7,M,0000,0000*62

$GPGSA,A,3,20,10,29,15,26,,,,,,,,2.42,2.23,0.94*00

$GPRMC,160344.000,A,4239.7861,N,02322.3848,E,0.94,136.22,150519,,,D*6D

$GPVTG,136.22,T,,M,0.94,N,1.74,K,D*33

$GPGGA,160345.000,4239.7857,N,02322.3854,E,2,05,2.23,579.3,M,36.7,M,0000,0000*6C

$GPGSA,A,3,20,10,29,15,26,,,,,,,,2.42,2.23,0.94*00

$GPRMC,160345.000,A,4239.7857,N,02322.3854,E,1.00,131.85,150519,,,D*62

$GPVTG,131.85,T,,M,1.00,N,1.85,K,D*3B

$GPGGA,160346.000,4239.7852,N,02322.3860,E,2,05,2.23,579.2,M,36.7,M,0000,0000*6C

$GPGSA,A,3,20,10,29,15,26,,,,,,,,2.42,2.23,0.94*00

$GPRMC,160346.000,A,4239.7852,N,02322.3860,E,1.07,132.21,150519,,,D*69

$GPVTG,132.21,T,,M,1.07,N,1.98,K,D*3D

$GPGGA,160347.000,4239.7843,N,02322.3866,E,2,05,2.23,579.1,M,36.7,M,0000,0000*68

$GPGSA,A,3,20,10,29,15,26,,,,,,,,2.42,2.23,0.94*00

$GPGSV,3,1,12,20,68,133,34,16,60,264,12,21,57,052,25,26,49,211,24*7C

$GPGSV,3,2,12,10,48,176,27,27,42,308,18,36,40,168,33,15,15,069,41*76

$GPGSV,3,3,12,29,09,112,18,08,09,301,18,13,04,039,,07,02,326,*77

$GPRMC,160347.000,A,4239.7843,N,02322.3866,E,1.13,142.06,150519,,,D*69

$GPVTG,142.06,T,,M,1.13,N,2.09,K,D*31

$GPGGA,160348.000,4239.7841,N,02322.3868,E,2,05,2.23,579.1,M,36.7,M,0000,0000*6B

$GPGSA,A,3,20,10,29,15,26,,,,,,,,2.42,2.23,0.94*00

$GPRMC,160348.000,A,4239.7841,N,02322.3868,E,1.07,142.11,150519,,,D*69

$GPVTG,142.11,T,,M,1.07,N,1.99,K,D*38

$GPGGA,160349.000,4239.7835,N,02322.3871,E,2,05,2.23,579.0,M,36.7,M,0000,0000*60

$GPGSA,A,3,20,10,29,15,26,,,,,,,,2.42,2.23,0.94*00

$GPRMC,160349.000,A,4239.7835,N,02322.3871,E,1.10,147.53,150519,,,D*66

$GPVTG,147.53,T,,M,1.10,N,2.04,K,D*3A

$GPGGA,160350.000,4239.7829,N,02322.3877,E,2,05,2.23,579.0,M,36.7,M,0000,0000*63

$GPGSA,A,3,20,10,29,15,26,,,,,,,,2.42,2.23,0.94*00

$GPRMC,160350.000,A,4239.7829,N,02322.3877,E,1.11,141.00,150519,,,D*64

$GPVTG,141.00,T,,M,1.11,N,2.06,K,D*39

$GPGGA,160351.000,4239.7822,N,02322.3885,E,2,05,2.23,578.9,M,36.7,M,0000,0000*6C

$GPGSA,A,3,20,10,29,15,26,,,,,,,,2.42,2.23,0.94*00

$GPRMC,160351.000,A,4239.7822,N,02322.3885,E,1.19,143.67,150519,,,D*68

$GPVTG,143.67,T,,M,1.19,N,2.20,K,D*36

$GPGGA,160352.000,4239.7815,N,02322.3892,E,2,05,2.23,578.9,M,36.7,M,0000,0000*6D

$GPGSA,A,3,20,10,29,15,26,,,,,,,,2.42,2.23,0.94*00

$GPGSV,3,1,12,20,68,133,34,16,60,264,,21,57,052,25,26,49,211,24*7F

$GPGSV,3,2,12,10,48,176,24,27,42,308,18,36,40,168,32,15,15,069,41*74

$GPGSV,3,3,12,29,09,112,16,08,09,301,18,13,04,039,,07,02,326,*79

$GPRMC,160352.000,A,4239.7815,N,02322.3892,E,1.24,145.02,150519,,,D*62

$GPVTG,145.02,T,,M,1.24,N,2.29,K,D*34

$GPGGA,160353.000,4239.7809,N,02322.3900,E,2,05,2.23,578.9,M,36.7,M,0000,0000*6B

$GPGSA,A,3,20,10,29,15,26,,,,,,,,2.42,2.23,0.94*00

$GPRMC,160353.000,A,4239.7809,N,02322.3900,E,1.28,135.45,150519,,,D*6C

$GPVTG,135.45,T,,M,1.28,N,2.37,K,D*33

$GPGGA,160354.000,4239.7803,N,02322.3907,E,2,05,2.23,578.8,M,36.7,M,0000,0000*60

$GPGSA,A,3,20,10,29,15,26,,,,,,,,2.41,2.23,0.94*03

$GPRMC,160354.000,A,4239.7803,N,02322.3907,E,1.35,134.61,150519,,,D*6D

$GPVTG,134.61,T,,M,1.35,N,2.50,K,D*39

$GPGGA,160355.000,4239.7796,N,02322.3915,E,2,05,2.23,578.8,M,36.7,M,0000,0000*61

$GPGSA,A,3,20,10,29,15,26,,,,,,,,2.41,2.23,0.94*03

$GPRMC,160355.000,A,4239.7796,N,02322.3915,E,1.45,137.50,150519,,,D*6A

$GPVTG,137.50,T,,M,1.45,N,2.69,K,D*35

$GPGGA,160356.000,4239.7791,N,02322.3920,E,2,05,2.23,578.8,M,36.7,M,0000,0000*63

$GPGSA,A,3,20,10,29,15,26,,,,,,,,2.42,2.23,0.94*00

$GPRMC,160356.000,A,4239.7791,N,02322.3920,E,1.46,138.03,150519,,,D*62

$GPVTG,138.03,T,,M,1.46,N,2.71,K,D*36

$GPGGA,160357.000,4239.7786,N,02322.3925,E,2,05,2.23,578.8,M,36.7,M,0000,0000*61

$GPGSA,A,3,20,10,29,15,26,,,,,,,,2.41,2.23,0.94*03

$GPGSV,3,1,12,20,68,133,34,16,60,264,,21,57,052,23,26,49,211,22*7F

$GPGSV,3,2,12,10,48,176,24,27,42,308,15,36,40,168,33,15,15,069,41*78

$GPGSV,3,3,12,29,09,112,14,08,09,302,17,13,04,039,,07,02,326,*77

$GPRMC,160357.000,A,4239.7786,N,02322.3925,E,1.47,139.63,150519,,,D*66

$GPVTG,139.63,T,,M,1.47,N,2.72,K,D*33

$GPGGA,160358.000,4239.7781,N,02322.3929,E,2,05,2.23,578.7,M,36.7,M,0000,0000*6A

$GPGSA,A,3,20,10,29,15,26,,,,,,,,2.41,2.23,0.94*03

$GPRMC,160358.000,A,4239.7781,N,02322.3929,E,1.49,138.45,150519,,,D*69

$GPVTG,138.45,T,,M,1.49,N,2.77,K,D*3D

$GPGGA,160359.000,4239.7778,N,02322.3933,E,2,05,2.23,578.7,M,36.7,M,0000,0000*66

$GPGSA,A,3,20,10,29,15,26,,,,,,,,2.41,2.23,0.94*03

$GPRMC,160359.000,A,4239.7778,N,02322.3933,E,1.50,138.38,150519,,,D*67

$GPVTG,138.38,T,,M,1.50,N,2.78,K,D*30

$GPGGA,160400.000,4239.7774,N,02322.3937,E,2,05,2.22,578.7,M,36.7,M,0000,0000*64

$GPGSA,A,3,20,10,29,15,26,,,,,,,,2.41,2.22,0.94*02

$GPRMC,160400.000,A,4239.7774,N,02322.3937,E,1.49,139.17,150519,,,D*60

$GPVTG,139.17,T,,M,1.49,N,2.76,K,D*3A

$GPGGA,160401.000,4239.7771,N,02322.3941,E,2,05,2.23,578.7,M,36.7,M,0000,0000*60

$GPGSA,A,3,20,10,29,15,26,,,,,,,,2.41,2.23,0.93*04

$GPRMC,160401.000,A,4239.7771,N,02322.3941,E,1.46,138.63,150519,,,D*68

$GPVTG,138.63,T,,M,1.46,N,2.71,K,D*30

$GPGGA,160402.000,4239.7766,N,02322.3944,E,2,05,2.22,578.6,M,36.7,M,0000,0000*60

$GPGSA,A,3,20,10,29,15,26,,,,,,,,2.41,2.22,0.94*02

$GPGSV,3,1,12,20,68,133,34,16,60,264,18,21,57,052,19,26,49,211,21*7C

$GPGSV,3,2,12,10,48,176,25,27,42,308,15,36,40,168,33,15,15,068,41*78

$GPGSV,3,3,12,29,09,112,13,08,09,302,17,13,04,039,,07,02,326,*70

$GPRMC,160402.000,A,4239.7766,N,02322.3944,E,1.46,139.80,150519,,,D*64

$GPVTG,139.80,T,,M,1.46,N,2.71,K,D*3C

$GPGGA,160403.000,4239.7764,N,02322.3948,E,2,05,2.22,578.6,M,36.7,M,0000,0000*6F

$GPGSA,A,3,20,10,29,15,26,,,,,,,,2.41,2.22,0.93*05

$GPRMC,160403.000,A,4239.7764,N,02322.3948,E,1.46,136.87,150519,,,D*63

$GPVTG,136.87,T,,M,1.46,N,2.70,K,D*35

$GPGGA,160404.000,4239.7761,N,02322.3949,E,2,05,2.23,578.6,M,36.7,M,0000,0000*6D

$GPGSA,A,3,20,10,29,15,26,,,,,,,,2.41,2.23,0.93*04

$GPRMC,160404.000,A,4239.7761,N,02322.3949,E,1.41,138.28,150519,,,D*6C

$GPVTG,138.28,T,,M,1.41,N,2.61,K,D*39

$GPGGA,160405.000,4239.7758,N,02322.3952,E,2,05,2.23,578.5,M,36.7,M,0000,0000*6F

$GPGSA,A,3,20,10,29,15,26,,,,,,,,2.41,2.23,0.93*04

$GPRMC,160405.000,A,4239.7758,N,02322.3952,E,1.41,138.09,150519,,,D*6E

$GPVTG,138.09,T,,M,1.41,N,2.60,K,D*3B

$GPGGA,160406.000,4239.7755,N,02322.3954,E,2,05,2.22,578.5,M,36.7,M,0000,0000*66

$GPGSA,A,3,20,10,29,15,26,,,,,,,,2.41,2.22,0.93*05

$GPRMC,160406.000,A,4239.7755,N,02322.3954,E,1.38,136.51,150519,,,D*6B

$GPVTG,136.51,T,,M,1.38,N,2.55,K,D*30

$GPGGA,160407.000,4239.7754,N,02322.3954,E,2,05,2.23,578.4,M,36.7,M,0000,0000*66

$GPGSA,A,3,20,10,29,15,26,,,,,,,,2.41,2.23,0.93*04

$GPGSV,3,1,12,20,68,132,34,16,60,264,18,21,57,052,17,26,49,211,21*73

$GPGSV,3,2,12,10,48,176,22,27,42,308,12,36,40,168,33,15,15,068,40*79

$GPGSV,3,3,12,29,09,112,11,08,09,302,18,13,04,039,,07,02,326,*7D

$GPRMC,160407.000,A,4239.7754,N,02322.3954,E,1.34,141.22,150519,,,D*63

$GPVTG,141.22,T,,M,1.34,N,2.48,K,D*34

$GPGGA,160408.000,4239.7753,N,02322.3952,E,2,05,2.22,578.4,M,36.7,M,0000,0000*69

$GPGSA,A,3,20,10,29,15,26,,,,,,,,2.41,2.22,0.93*05

$GPRMC,160408.000,A,4239.7753,N,02322.3952,E,1.26,140.53,150519,,,D*69

$GPVTG,140.53,T,,M,1.26,N,2.33,K,D*3C

$GPGGA,160409.000,4239.7752,N,02322.3952,E,2,05,2.22,578.4,M,36.7,M,0000,0000*69

$GPGSA,A,3,20,10,29,15,26,,,,,,,,2.41,2.22,0.93*05

$GPRMC,160409.000,A,4239.7752,N,02322.3952,E,1.20,141.33,150519,,,D*68

$GPVTG,141.33,T,,M,1.20,N,2.22,K,D*3D

$GPGGA,160410.000,4239.7749,N,02322.3953,E,2,05,2.22,578.3,M,36.7,M,0000,0000*6D

$GPGSA,A,3,20,10,29,15,26,,,,,,,,2.41,2.22,0.93*05

$GPRMC,160410.000,A,4239.7749,N,02322.3953,E,1.17,141.22,150519,,,D*6F

$GPVTG,141.22,T,,M,1.17,N,2.17,K,D*3F

$GPGGA,160411.000,4239.7748,N,02322.3951,E,2,05,2.22,578.3,M,36.7,M,0000,0000*6F

$GPGSA,A,3,20,10,29,15,26,,,,,,,,2.41,2.22,0.93*05

$GPRMC,160411.000,A,4239.7748,N,02322.3951,E,1.08,137.34,150519,,,D*65

$GPVTG,137.34,T,,M,1.08,N,2.00,K,D*31

$GPGGA,160412.000,4239.7747,N,02322.3951,E,2,05,2.22,578.2,M,36.7,M,0000,0000*62

$GPGSA,A,3,20,10,29,15,26,,,,,,,,2.41,2.22,0.93*05

$GPGSV,3,1,12,20,68,132,34,16,60,264,19,21,57,053,16,26,49,211,23*70

$GPGSV,3,2,12,10,48,176,21,27,42,308,13,36,40,168,34,15,15,068,40*7C

$GPGSV,3,3,12,29,09,112,14,08,09,302,18,13,04,039,,07,02,326,*78

$GPRMC,160412.000,A,4239.7747,N,02322.3951,E,0.99,134.24,150519,,,D*62

$GPVTG,134.24,T,,M,0.99,N,1.83,K,D*32

$GPGGA,160413.000,4239.7744,N,02322.3952,E,2,05,2.22,578.2,M,36.7,M,0000,0000*63

$GPGSA,A,3,20,10,29,15,26,,,,,,,,2.41,2.22,0.93*05

$GPRMC,160413.000,A,4239.7744,N,02322.3952,E,0.96,137.07,150519,,,D*6E

$GPVTG,137.07,T,,M,0.96,N,1.77,K,D*34

$GPGGA,160414.000,4239.7739,N,02322.3956,E,2,05,2.22,578.2,M,36.7,M,0000,0000*6A

$GPGSA,A,3,20,10,29,15,26,,,,,,,,2.41,2.22,0.93*05

$GPRMC,160414.000,A,4239.7739,N,02322.3956,E,0.99,139.51,150519,,,D*65

$GPVTG,139.51,T,,M,0.99,N,1.83,K,D*3D

$GPGGA,160415.000,4239.7736,N,02322.3958,E,2,05,2.22,578.1,M,36.7,M,0000,0000*69

$GPGSA,A,3,20,10,29,15,26,,,,,,,,2.41,2.22,0.93*05

$GPRMC,160415.000,A,4239.7736,N,02322.3958,E,0.99,138.65,150519,,,D*63

$GPVTG,138.65,T,,M,0.99,N,1.84,K,D*3C

$GPGGA,160416.000,4239.7734,N,02322.3960,E,2,05,2.22,578.1,M,36.7,M,0000,0000*63

$GPGSA,A,3,20,10,29,15,26,,,,,,,,2.41,2.22,0.93*05

$GPRMC,160416.000,A,4239.7734,N,02322.3960,E,0.94,141.62,150519,,,D*6D

$GPVTG,141.62,T,,M,0.94,N,1.75,K,D*36

$GPGGA,160417.000,4239.7723,N,02322.3973,E,2,05,2.22,578.0,M,36.7,M,0000,0000*67

$GPGSA,A,3,20,10,29,15,26,,,,,,,,2.41,2.22,0.93*05

$GPGSV,3,1,12,20,68,132,34,16,60,264,17,21,57,053,17,26,49,211,24*78

$GPGSV,3,2,12,10,48,176,20,27,42,308,13,36,40,168,34,15,15,068,40*7D

$GPGSV,3,3,12,08,09,302,18,29,08,112,16,13,04,039,,07,02,326,*7B

$GPRMC,160417.000,A,4239.7723,N,02322.3973,E,1.06,138.89,150519,,,D*69

$GPVTG,138.89,T,,M,1.06,N,1.96,K,D*3A

$GPGGA,160418.000,4239.7711,N,02322.3987,E,2,05,2.22,577.9,M,36.7,M,0000,0000*64

$GPGSA,A,3,20,10,29,15,26,,,,,,,,2.41,2.22,0.93*05

$GPRMC,160418.000,A,4239.7711,N,02322.3987,E,1.20,136.47,150519,,,D*64

$GPVTG,136.47,T,,M,1.20,N,2.22,K,D*3E

$GPGGA,160419.000,4239.7705,N,02322.3995,E,2,04,2.37,577.7,M,36.7,M,0000,0000*68

$GPGSA,A,3,20,29,15,26,,,,,,,,,2.54,2.37,0.94*03

$GPRMC,160419.000,A,4239.7705,N,02322.3995,E,1.23,134.96,150519,,,D*6E

$GPVTG,134.96,T,,M,1.23,N,2.27,K,D*36

$GPGGA,160420.000,4239.7700,N,02322.4002,E,2,04,2.36,577.6,M,36.7,M,0000,0000*67

$GPGSA,A,3,20,29,15,26,,,,,,,,,2.54,2.36,0.94*02

$GPRMC,160420.000,A,4239.7700,N,02322.4002,E,1.22,136.19,150519,,,D*65

$GPVTG,136.19,T,,M,1.22,N,2.26,K,D*33

$GPGGA,160421.000,4239.7695,N,02322.4007,E,2,04,2.37,577.5,M,36.7,M,0000,0000*6C

$GPGSA,A,3,20,29,15,26,,,,,,,,,2.54,2.37,0.94*03

$GPRMC,160421.000,A,4239.7695,N,02322.4007,E,1.19,136.67,150519,,,D*6D

$GPVTG,136.67,T,,M,1.19,N,2.21,K,D*35

$GPGGA,160422.000,4239.7695,N,02322.4006,E,2,05,2.22,577.5,M,36.7,M,0000,0000*6B

$GPGSA,A,3,20,10,29,15,26,,,,,,,,2.41,2.22,0.93*05

$GPGSV,3,1,12,20,68,132,34,16,60,264,20,21,57,053,18,26,49,211,23*74

$GPGSV,3,2,12,10,48,176,20,27,42,308,14,36,40,168,34,15,15,068,40*7A

$GPGSV,3,3,12,08,09,302,18,29,08,112,18,13,04,039,,07,02,326,*75

$GPRMC,160422.000,A,4239.7695,N,02322.4006,E,1.10,129.76,150519,,,D*68

$GPVTG,129.76,T,,M,1.10,N,2.03,K,D*32

$GPGGA,160423.000,4239.7694,N,02322.4006,E,2,05,2.22,577.4,M,36.7,M,0000,0000*6A

$GPGSA,A,3,20,10,29,15,26,,,,,,,,2.41,2.22,0.93*05

$GPRMC,160423.000,A,4239.7694,N,02322.4006,E,1.01,137.11,150519,,,D*66

$GPVTG,137.11,T,,M,1.01,N,1.87,K,D*33

$GPGGA,160424.000,4239.7695,N,02322.4003,E,2,05,2.22,577.4,M,36.7,M,0000,0000*69

$GPGSA,A,3,20,10,29,15,26,,,,,,,,2.41,2.22,0.93*05

$GPRMC,160424.000,A,4239.7695,N,02322.4003,E,0.90,138.59,150519,,,D*6F

$GPVTG,138.59,T,,M,0.90,N,1.67,K,D*37

$GPGGA,160425.000,4239.7700,N,02322.3995,E,2,05,2.22,577.3,M,36.7,M,0000,0000*63

$GPGSA,A,3,20,10,29,15,26,,,,,,,,2.41,2.22,0.93*05

$GPRMC,160425.000,A,4239.7700,N,02322.3995,E,0.68,137.10,150519,,,D*67

$GPVTG,137.10,T,,M,0.68,N,1.26,K,D*37

$GPGGA,160426.000,4239.7705,N,02322.3987,E,2,05,2.22,577.3,M,36.7,M,0000,0000*66

$GPGSA,A,3,20,10,29,15,26,,,,,,,,2.41,2.22,0.93*05

$GPRMC,160426.000,A,4239.7705,N,02322.3987,E,0.51,141.46,150519,,,D*6A

$GPVTG,141.46,T,,M,0.51,N,0.94,K,D*37

$GPGGA,160427.000,4239.7707,N,02322.3983,E,2,05,2.22,577.2,M,36.7,M,0000,0000*60

$GPGSA,A,3,20,10,29,15,26,,,,,,,,2.41,2.22,0.93*05

$GPGSV,3,1,12,20,68,132,34,16,60,264,20,21,57,053,19,26,49,211,21*77

$GPGSV,3,2,12,10,48,176,23,27,42,308,14,36,40,168,34,15,15,068,40*79

$GPGSV,3,3,12,08,09,302,18,29,08,112,16,13,04,039,,07,02,326,*7B

$GPRMC,160427.000,A,4239.7707,N,02322.3983,E,0.41,141.15,150519,,,D*6A

$GPVTG,141.15,T,,M,0.41,N,0.77,K,D*3D

$GPGGA,160428.000,4239.7707,N,02322.3979,E,2,05,2.22,577.2,M,36.7,M,0000,0000*6A

$GPGSA,A,3,20,10,29,15,26,,,,,,,,2.41,2.22,0.93*05

$GPRMC,160428.000,A,4239.7707,N,02322.3979,E,0.35,160.12,150519,,,D*67

$GPVTG,160.12,T,,M,0.35,N,0.66,K,D*3A

$GPGGA,160429.000,4239.7710,N,02322.3976,E,2,05,2.22,577.1,M,36.7,M,0000,0000*61

$GPGSA,A,3,20,10,29,15,26,,,,,,,,2.41,2.22,0.93*05

$GPRMC,160429.000,A,4239.7710,N,02322.3976,E,0.23,139.01,150519,,,D*66

$GPVTG,139.01,T,,M,0.23,N,0.43,K,D*34

$GPGGA,160430.000,4239.7709,N,02322.3977,E,2,05,2.22,577.1,M,36.7,M,0000,0000*60

$GPGSA,A,3,20,10,29,15,26,,,,,,,,2.41,2.22,0.93*05

$GPRMC,160430.000,A,4239.7709,N,02322.3977,E,0.22,130.82,150519,,,D*64

$GPVTG,130.82,T,,M,0.22,N,0.40,K,D*34

$GPGGA,160431.000,4239.7709,N,02322.3977,E,2,05,2.22,577.1,M,36.7,M,0000,0000*61

$GPGSA,A,3,20,10,29,15,26,,,,,,,,2.41,2.22,0.93*05

$GPRMC,160431.000,A,4239.7709,N,02322.3977,E,0.22,111.64,150519,,,D*6E

$GPVTG,111.64,T,,M,0.22,N,0.40,K,D*3F

$GPGGA,160432.000,4239.7709,N,02322.3978,E,2,05,2.22,577.1,M,36.7,M,0000,0000*6D

$GPGSA,A,3,20,10,29,15,26,,,,,,,,2.41,2.22,0.93*05

$GPGSV,3,1,12,20,68,132,34,16,60,264,17,21,57,053,19,10,49,176,23*76

$GPGSV,3,2,12,26,49,211,20,27,42,308,13,36,40,168,34,15,15,068,40*7B

$GPGSV,3,3,12,08,09,302,18,29,08,112,16,13,04,039,,07,02,326,*7B

$GPRMC,160432.000,A,4239.7709,N,02322.3978,E,0.18,139.16,150519,,,D*64

$GPVTG,139.16,T,,M,0.18,N,0.32,K,D*3C

$GPGGA,160433.000,4239.7708,N,02322.3978,E,2,05,2.22,577.1,M,36.7,M,0000,0000*6D

$GPGSA,A,3,20,10,29,15,26,,,,,,,,2.41,2.22,0.93*05

$GPRMC,160433.000,A,4239.7708,N,02322.3978,E,0.20,92.70,150519,,,D*5F

$GPVTG,92.70,T,,M,0.20,N,0.37,K,D*02

$GPGGA,160434.000,4239.7708,N,02322.3979,E,2,05,2.22,577.1,M,36.7,M,0000,0000*6B

$GPGSA,A,3,20,10,29,15,26,,,,,,,,2.41,2.22,0.93*05

$GPRMC,160434.000,A,4239.7708,N,02322.3979,E,0.22,80.24,150519,,,D*59

$GPVTG,80.24,T,,M,0.22,N,0.41,K,D*03

$GPGGA,160435.000,4239.7708,N,02322.3980,E,2,04,2.36,577.1,M,36.7,M,0000,0000*68

$GPGSA,A,3,20,29,15,26,,,,,,,,,2.54,2.36,0.94*02

$GPRMC,160435.000,A,4239.7708,N,02322.3980,E,0.27,54.88,150519,,,D*54

$GPVTG,54.88,T,,M,0.27,N,0.51,K,D*08

$GPGGA,160436.000,4239.7709,N,02322.3980,E,2,05,2.22,577.1,M,36.7,M,0000,0000*6E

$GPGSA,A,3,20,10,29,15,26,,,,,,,,2.41,2.22,0.93*05

$GPRMC,160436.000,A,4239.7709,N,02322.3980,E,0.17,54.32,150519,,,D*54

$GPVTG,54.32,T,,M,0.17,N,0.31,K,D*0C

$GPGGA,160437.000,4239.7709,N,02322.3981,E,2,05,2.22,577.1,M,36.7,M,0000,0000*6E

$GPGSA,A,3,20,10,29,15,26,,,,,,,,2.41,2.22,0.93*05

$GPGSV,3,1,12,20,68,132,35,16,60,264,17,21,57,053,21,10,49,176,22*7D

$GPGSV,3,2,12,26,49,211,20,27,42,308,13,36,40,168,35,15,15,068,40*7A

$GPGSV,3,3,12,08,09,302,18,29,08,112,15,13,04,039,,07,02,326,*78

$GPRMC,160437.000,A,4239.7709,N,02322.3981,E,0.15,159.52,150519,,,D*6C

$GPVTG,159.52,T,,M,0.15,N,0.28,K,D*3C

$GPGGA,160438.000,4239.7709,N,02322.3981,E,2,05,2.22,577.1,M,36.7,M,0000,0000*61

$GPGSA,A,3,20,10,29,15,26,,,,,,,,2.41,2.22,0.93*05

$GPRMC,160438.000,A,4239.7709,N,02322.3981,E,0.12,167.43,150519,,,D*69

$GPVTG,167.43,T,,M,0.12,N,0.22,K,D*3C

$GPGGA,160439.000,4239.7708,N,02322.3981,E,2,05,2.22,577.0,M,36.7,M,0000,0000*60

$GPGSA,A,3,20,10,29,15,26,,,,,,,,2.41,2.22,0.93*05

$GPRMC,160439.000,A,4239.7708,N,02322.3981,E,0.19,202.85,150519,,,D*68

$GPVTG,202.85,T,,M,0.19,N,0.35,K,D*3B

$GPGGA,160440.000,4239.7708,N,02322.3981,E,2,05,2.22,577.0,M,36.7,M,0000,0000*6E

$GPGSA,A,3,20,10,29,15,26,,,,,,,,2.41,2.22,0.93*05

$GPRMC,160440.000,A,4239.7708,N,02322.3981,E,0.28,247.92,150519,,,D*63

$GPVTG,247.92,T,,M,0.28,N,0.52,K,D*3F

$GPGGA,160441.000,4239.7708,N,02322.3979,E,2,05,2.22,577.0,M,36.7,M,0000,0000*68

$GPGSA,A,3,20,10,29,15,26,,,,,,,,2.41,2.22,0.93*05

$GPRMC,160441.000,A,4239.7708,N,02322.3979,E,0.49,264.45,150519,,,D*69

$GPVTG,264.45,T,,M,0.49,N,0.91,K,D*3C

$GPGGA,160442.000,4239.7708,N,02322.3977,E,2,05,2.22,577.0,M,36.7,M,0000,0000*65

$GPGSA,A,3,20,10,29,15,26,,,,,,,,2.40,2.22,0.93*04

$GPGSV,3,1,12,20,68,131,35,16,60,263,16,21,57,053,21,10,49,176,26*7C

$GPGSV,3,2,12,26,49,211,20,27,42,308,13,36,40,168,35,15,15,068,40*7A

$GPGSV,3,3,12,08,09,302,18,29,08,112,17,13,04,039,,07,02,326,*7A

$GPRMC,160442.000,A,4239.7708,N,02322.3977,E,0.51,282.17,150519,,,D*62

$GPVTG,282.17,T,,M,0.51,N,0.94,K,D*3F

$GPGGA,160443.000,4239.7709,N,02322.3975,E,2,05,2.22,577.0,M,36.7,M,0000,0000*67

$GPGSA,A,3,20,10,29,15,26,,,,,,,,2.41,2.22,0.93*05

$GPRMC,160443.000,A,4239.7709,N,02322.3975,E,0.70,285.28,150519,,,D*68

$GPVTG,285.28,T,,M,0.70,N,1.29,K,D*30

$GPGGA,160444.000,4239.7718,N,02322.3964,E,2,05,2.22,577.0,M,36.7,M,0000,0000*60

$GPGSA,A,3,20,10,29,15,26,,,,,,,,2.40,2.22,0.93*04

$GPRMC,160444.000,A,4239.7718,N,02322.3964,E,0.77,296.78,150519,,,D*6F

$GPVTG,296.78,T,,M,0.77,N,1.42,K,D*3D

$GPGGA,160445.000,4239.7729,N,02322.3949,E,2,05,2.22,577.0,M,36.7,M,0000,0000*6C

$GPGSA,A,3,20,10,29,15,26,,,,,,,,2.40,2.22,0.93*04

$GPRMC,160445.000,A,4239.7729,N,02322.3949,E,0.91,308.62,150519,,,D*66

$GPVTG,308.62,T,,M,0.91,N,1.69,K,D*31

$GPGGA,160446.000,4239.7741,N,02322.3937,E,2,05,2.22,577.0,M,36.7,M,0000,0000*68

$GPGSA,A,3,20,10,29,15,26,,,,,,,,2.40,2.22,0.93*04

$GPRMC,160446.000,A,4239.7741,N,02322.3937,E,1.07,318.59,150519,,,D*65

$GPVTG,318.59,T,,M,1.07,N,1.97,K,D*37

$GPGGA,160447.000,4239.7749,N,02322.3925,E,2,05,2.22,577.0,M,36.7,M,0000,0000*62

$GPGSA,A,3,20,10,29,15,26,,,,,,,,2.41,2.22,0.93*05

$GPGSV,3,1,12,20,68,131,35,16,60,263,16,21,57,053,21,10,49,176,26*7C

$GPGSV,3,2,12,26,49,211,20,27,42,308,15,36,40,168,33,15,15,068,40*7A

$GPGSV,3,3,12,08,09,302,18,29,08,112,16,13,04,039,,07,02,326,*7B

$GPRMC,160447.000,A,4239.7749,N,02322.3925,E,1.19,319.66,150519,,,D*6D

$GPVTG,319.66,T,,M,1.19,N,2.21,K,D*3B

$GPGGA,160448.000,4239.7747,N,02322.3925,E,2,05,2.22,576.9,M,36.7,M,0000,0000*6B

$GPGSA,A,3,20,10,29,15,26,,,,,,,,2.40,2.22,0.93*04

$GPRMC,160448.000,A,4239.7747,N,02322.3925,E,1.09,313.64,150519,,,D*65

$GPVTG,313.64,T,,M,1.09,N,2.02,K,D*33

$GPGGA,160449.000,4239.7746,N,02322.3926,E,2,05,2.21,576.8,M,36.7,M,0000,0000*6A

$GPGSA,A,3,20,10,29,15,26,,,,,,,,2.40,2.21,0.93*07

$GPRMC,160449.000,A,4239.7746,N,02322.3926,E,0.98,314.14,150519,,,D*6F

$GPVTG,314.14,T,,M,0.98,N,1.82,K,D*31

$GPGGA,160450.000,4239.7746,N,02322.3923,E,2,05,2.22,576.7,M,36.7,M,0000,0000*6B

$GPGSA,A,3,20,10,29,15,26,,,,,,,,2.40,2.22,0.93*04

$GPRMC,160450.000,A,4239.7746,N,02322.3923,E,0.99,311.18,150519,,,D*6A

$GPVTG,311.18,T,,M,0.99,N,1.84,K,D*3F

$GPGGA,160451.000,4239.7746,N,02322.3923,E,2,05,2.21,576.7,M,36.7,M,0000,0000*69

$GPGSA,A,3,20,10,29,15,26,,,,,,,,2.40,2.21,0.93*07

$GPRMC,160451.000,A,4239.7746,N,02322.3923,E,0.96,317.41,150519,,,D*6E

$GPVTG,317.41,T,,M,0.96,N,1.77,K,D*36

$GPGGA,160452.000,4239.7746,N,02322.3919,E,2,05,2.21,576.6,M,36.7,M,0000,0000*62

$GPGSA,A,3,20,10,29,15,26,,,,,,,,2.40,2.21,0.93*07

$GPGSV,3,1,12,20,68,131,34,16,60,263,16,21,57,053,23,10,49,176,26*7F

$GPGSV,3,2,12,26,49,211,21,27,42,308,18,36,40,168,35,15,15,068,40*70

$GPGSV,3,3,12,08,09,302,19,29,08,112,15,13,04,039,,07,02,326,*79

$GPRMC,160452.000,A,4239.7746,N,02322.3919,E,0.99,308.57,150519,,,D*62

$GPVTG,308.57,T,,M,0.99,N,1.84,K,D*3C

$GPGGA,160453.000,4239.7750,N,02322.3913,E,2,05,2.21,576.6,M,36.7,M,0000,0000*6E

$GPGSA,A,3,20,10,29,15,26,,,,,,,,2.40,2.21,0.93*07

$GPRMC,160453.000,A,4239.7750,N,02322.3913,E,1.01,312.12,150519,,,D*64

$GPVTG,312.12,T,,M,1.01,N,1.88,K,D*3A

$GPGGA,160454.000,4239.7754,N,02322.3907,E,2,05,2.21,576.6,M,36.7,M,0000,0000*68

$GPGSA,A,3,20,10,29,15,26,,,,,,,,2.40,2.21,0.93*07

$GPRMC,160454.000,A,4239.7754,N,02322.3907,E,1.05,316.43,150519,,,D*66

$GPVTG,316.43,T,,M,1.05,N,1.94,K,D*33

$GPGGA,160455.000,4239.7757,N,02322.3901,E,2,05,2.21,576.5,M,36.7,M,0000,0000*6F

$GPGSA,A,3,20,10,29,15,26,,,,,,,,2.40,2.21,0.93*07

$GPRMC,160455.000,A,4239.7757,N,02322.3901,E,1.10,312.92,150519,,,D*6E

$GPVTG,312.92,T,,M,1.10,N,2.04,K,D*35

$GPGGA,160456.000,4239.7761,N,02322.3895,E,2,05,2.22,576.5,M,36.7,M,0000,0000*66

$GPGSA,A,3,20,10,29,15,26,,,,,,,,2.40,2.22,0.93*04

$GPRMC,160456.000,A,4239.7761,N,02322.3895,E,1.15,315.75,150519,,,D*6F

$GPVTG,315.75,T,,M,1.15,N,2.14,K,D*3F

$GPGGA,160457.000,4239.7767,N,02322.3886,E,2,05,2.21,576.5,M,36.7,M,0000,0000*60

$GPGSA,A,3,20,10,29,15,26,,,,,,,,2.40,2.21,0.93*07

$GPGSV,3,1,12,20,68,131,34,16,60,263,17,21,57,053,23,10,49,176,24*7C

$GPGSV,3,2,12,26,49,211,23,27,42,308,19,36,40,168,34,15,15,068,40*72

$GPGSV,3,3,12,08,09,302,19,29,08,112,14,13,04,039,,07,02,326,*78

$GPRMC,160457.000,A,4239.7767,N,02322.3886,E,1.21,319.01,150519,,,D*62

$GPVTG,319.01,T,,M,1.21,N,2.25,K,D*35

$GPGGA,160458.000,4239.7771,N,02322.3880,E,2,05,2.21,576.5,M,36.7,M,0000,0000*6E

$GPGSA,A,3,20,10,29,15,26,,,,,,,,2.40,2.21,0.93*07

$GPRMC,160458.000,A,4239.7771,N,02322.3880,E,1.30,314.29,150519,,,D*6B

$GPVTG,314.29,T,,M,1.30,N,2.40,K,D*31

$GPGGA,160459.000,4239.7774,N,02322.3874,E,2,05,2.21,576.4,M,36.7,M,0000,0000*60

$GPGSA,A,3,20,10,29,15,26,,,,,,,,2.40,2.21,0.93*07

$GPRMC,160459.000,A,4239.7774,N,02322.3874,E,1.33,313.09,150519,,,D*62

$GPVTG,313.09,T,,M,1.33,N,2.46,K,D*31

$GPGGA,160500.000,4239.7777,N,02322.3872,E,2,05,2.21,576.4,M,36.7,M,0000,0000*68

$GPGSA,A,3,20,10,29,15,26,,,,,,,,2.40,2.21,0.93*07

$GPRMC,160500.000,A,4239.7777,N,02322.3872,E,1.30,319.00,150519,,,D*6A

$GPVTG,319.00,T,,M,1.30,N,2.40,K,D*37

$GPGGA,160501.000,4239.7780,N,02322.3871,E,2,05,2.21,576.3,M,36.7,M,0000,0000*65

$GPGSA,A,3,20,10,29,15,26,,,,,,,,2.40,2.21,0.93*07

$GPRMC,160501.000,A,4239.7780,N,02322.3871,E,1.28,325.47,150519,,,D*65

$GPVTG,325.47,T,,M,1.28,N,2.38,K,D*3D

$GPGGA,160502.000,4239.7783,N,02322.3868,E,2,05,2.21,576.2,M,36.7,M,0000,0000*6C

$GPGSA,A,3,20,10,29,15,26,,,,,,,,2.40,2.21,0.93*07

$GPGSV,3,1,12,20,68,131,34,16,60,263,16,21,57,053,21,10,49,176,24*7F

$GPGSV,3,2,12,26,49,211,23,27,42,308,21,36,40,168,34,15,15,068,40*79

$GPGSV,3,3,12,08,09,302,20,29,08,112,12,13,04,039,,07,02,326,*74

$GPRMC,160502.000,A,4239.7783,N,02322.3868,E,1.27,326.22,150519,,,D*62

$GPVTG,326.22,T,,M,1.27,N,2.36,K,D*3C

$GPGGA,160503.000,4239.7785,N,02322.3866,E,2,05,2.21,576.2,M,36.7,M,0000,0000*65

$GPGSA,A,3,20,10,29,15,26,,,,,,,,2.40,2.21,0.93*07

$GPRMC,160503.000,A,4239.7785,N,02322.3866,E,1.24,324.02,150519,,,D*68

$GPVTG,324.02,T,,M,1.24,N,2.30,K,D*39

$GPGGA,160504.000,4239.7788,N,02322.3862,E,2,05,2.21,576.1,M,36.7,M,0000,0000*68

$GPGSA,A,3,20,10,29,15,26,,,,,,,,2.40,2.21,0.93*07

$GPRMC,160504.000,A,4239.7788,N,02322.3862,E,1.26,317.79,150519,,,D*68

$GPVTG,317.79,T,,M,1.26,N,2.34,K,D*33

$GPGGA,160505.000,4239.7790,N,02322.3858,E,2,05,2.21,576.1,M,36.7,M,0000,0000*69

$GPGSA,A,3,20,10,29,15,26,,,,,,,,2.40,2.21,0.93*07

$GPRMC,160505.000,A,4239.7790,N,02322.3858,E,1.27,317.51,150519,,,D*62

$GPVTG,317.51,T,,M,1.27,N,2.35,K,D*39

$GPGGA,160506.000,4239.7793,N,02322.3855,E,2,05,2.21,576.1,M,36.7,M,0000,0000*64

$GPGSA,A,3,20,10,29,15,26,,,,,,,,2.40,2.21,0.93*07

$GPRMC,160506.000,A,4239.7793,N,02322.3855,E,1.29,316.31,150519,,,D*66

$GPVTG,316.31,T,,M,1.29,N,2.38,K,D*3D

$GPGGA,160507.000,4239.7796,N,02322.3853,E,2,05,2.21,576.1,M,36.7,M,0000,0000*66

$GPGSA,A,3,20,10,29,15,26,,,,,,,,2.40,2.21,0.93*07

$GPGSV,3,1,12,20,68,131,34,16,60,263,15,21,57,053,21,10,49,176,24*7C

$GPGSV,3,2,12,26,49,211,23,27,42,308,22,36,40,168,35,15,15,068,40*7B

$GPGSV,3,3,12,08,09,302,18,29,08,112,13,13,04,039,,07,02,326,*7E

$GPRMC,160507.000,A,4239.7796,N,02322.3853,E,1.29,321.11,150519,,,D*62

$GPVTG,321.11,T,,M,1.29,N,2.38,K,D*3B

$GPGGA,160508.000,4239.7796,N,02322.3853,E,2,05,2.21,576.1,M,36.7,M,0000,0000*69

$GPGSA,A,3,20,10,29,15,26,,,,,,,,2.40,2.21,0.93*07

$GPRMC,160508.000,A,4239.7796,N,02322.3853,E,1.22,318.93,150519,,,D*66

$GPVTG,318.93,T,,M,1.22,N,2.26,K,D*3F

$GPGGA,160509.000,4239.7796,N,02322.3853,E,2,05,2.21,576.1,M,36.7,M,0000,0000*68

$GPGSA,A,3,20,10,29,15,26,,,,,,,,2.40,2.21,0.93*07

$GPRMC,160509.000,A,4239.7796,N,02322.3853,E,1.17,316.31,150519,,,D*67

$GPVTG,316.31,T,,M,1.17,N,2.18,K,D*32

$GPGGA,160510.000,4239.7798,N,02322.3851,E,2,05,2.21,576.1,M,36.7,M,0000,0000*6C

$GPGSA,A,3,20,10,29,15,26,,,,,,,,2.40,2.21,0.93*07

$GPRMC,160510.000,A,4239.7798,N,02322.3851,E,1.17,314.11,150519,,,D*63

$GPVTG,314.11,T,,M,1.17,N,2.16,K,D*3C

$GPGGA,160511.000,4239.7805,N,02322.3845,E,2,05,2.21,576.1,M,36.7,M,0000,0000*63

$GPGSA,A,3,20,10,29,15,26,,,,,,,,2.40,2.21,0.93*07

$GPRMC,160511.000,A,4239.7805,N,02322.3845,E,1.23,318.88,150519,,,D*67

$GPVTG,318.88,T,,M,1.23,N,2.29,K,D*3B

$GPGGA,160512.000,4239.7805,N,02322.3847,E,2,05,2.21,576.0,M,36.7,M,0000,0000*63

$GPGSA,A,3,20,10,29,15,26,,,,,,,,2.40,2.21,0.93*07

$GPGSV,3,1,12,20,68,131,34,16,60,263,13,21,57,053,18,10,49,176,24*70

$GPGSV,3,2,12,26,49,211,25,27,42,308,23,36,40,168,34,15,15,068,40*7D

$GPGSV,3,3,12,08,09,302,19,29,08,112,14,13,04,038,,07,02,326,*79

$GPRMC,160512.000,A,4239.7805,N,02322.3847,E,1.13,319.78,150519,,,D*6B

$GPVTG,319.78,T,,M,1.13,N,2.09,K,D*34

$GPGGA,160513.000,4239.7802,N,02322.3851,E,2,05,2.21,576.0,M,36.7,M,0000,0000*62

$GPGSA,A,3,20,10,29,15,26,,,,,,,,2.40,2.21,0.93*07

$GPRMC,160513.000,A,4239.7802,N,02322.3851,E,1.00,317.94,150519,,,D*64

$GPVTG,317.94,T,,M,1.00,N,1.86,K,D*3E

$GPGGA,160514.000,4239.7798,N,02322.3857,E,2,05,2.21,576.0,M,36.7,M,0000,0000*6F

$GPGSA,A,3,20,10,29,15,26,,,,,,,,2.40,2.21,0.93*07

$GPRMC,160514.000,A,4239.7798,N,02322.3857,E,0.86,310.15,150519,,,D*68

$GPVTG,310.15,T,,M,0.86,N,1.60,K,D*37

$GPGGA,160515.000,4239.7800,N,02322.3856,E,2,05,2.21,576.0,M,36.7,M,0000,0000*61

$GPGSA,A,3,20,10,29,15,26,,,,,,,,2.40,2.21,0.93*07

$GPRMC,160515.000,A,4239.7800,N,02322.3856,E,0.83,310.49,150519,,,D*6A

$GPVTG,310.49,T,,M,0.83,N,1.55,K,D*3D

$GPGGA,160516.000,4239.7801,N,02322.3857,E,2,05,2.21,576.0,M,36.7,M,0000,0000*62

$GPGSA,A,3,20,10,29,15,26,,,,,,,,2.40,2.21,0.93*07

$GPRMC,160516.000,A,4239.7801,N,02322.3857,E,0.81,317.51,150519,,,D*65

$GPVTG,317.51,T,,M,0.81,N,1.49,K,D*3C

$GPGGA,160517.000,4239.7803,N,02322.3857,E,2,05,2.21,576.0,M,36.7,M,0000,0000*61

$GPGSA,A,3,20,10,29,15,26,,,,,,,,2.40,2.21,0.93*07

$GPGSV,3,1,12,20,69,131,33,16,60,263,14,21,57,053,16,10,49,176,26*7D

$GPGSV,3,2,12,26,49,211,25,27,42,308,22,36,40,168,34,15,15,068,41*7D

$GPGSV,3,3,12,08,09,302,19,29,08,112,14,13,04,038,,07,02,326,*79

$GPRMC,160517.000,A,4239.7803,N,02322.3857,E,0.73,316.03,150519,,,D*6D

$GPVTG,316.03,T,,M,0.73,N,1.35,K,D*3C

$GPGGA,160518.000,4239.7803,N,02322.3859,E,2,05,2.21,576.0,M,36.7,M,0000,0000*60

$GPGSA,A,3,20,10,29,15,26,,,,,,,,2.40,2.21,0.93*07

$GPRMC,160518.000,A,4239.7803,N,02322.3859,E,0.64,318.01,150519,,,D*66

$GPVTG,318.01,T,,M,0.64,N,1.19,K,D*38

$GPGGA,160519.000,4239.7806,N,02322.3855,E,2,05,2.21,576.0,M,36.7,M,0000,0000*68

$GPGSA,A,3,20,10,29,15,26,,,,,,,,2.40,2.21,0.93*07

$GPRMC,160519.000,A,4239.7806,N,02322.3855,E,0.65,294.85,150519,,,D*66

$GPVTG,294.85,T,,M,0.65,N,1.20,K,D*3A

$GPGGA,160520.000,4239.7808,N,02322.3855,E,2,05,2.21,576.0,M,36.7,M,0000,0000*6C

$GPGSA,A,3,20,10,29,15,26,,,,,,,,2.40,2.21,0.93*07

$GPRMC,160520.000,A,4239.7808,N,02322.3855,E,0.59,301.49,150519,,,D*60

$GPVTG,301.49,T,,M,0.59,N,1.10,K,D*3B

$GPGGA,160521.000,4239.7815,N,02322.3847,E,2,05,2.21,576.0,M,36.7,M,0000,0000*62

$GPGSA,A,3,20,10,29,15,26,,,,,,,,2.40,2.21,0.93*07

$GPRMC,160521.000,A,4239.7815,N,02322.3847,E,0.71,296.79,150519,,,D*68

$GPVTG,296.79,T,,M,0.71,N,1.31,K,D*3E

$GPGGA,160522.000,4239.7821,N,02322.3841,E,2,05,2.21,576.0,M,36.7,M,0000,0000*60

$GPGSA,A,3,20,10,29,15,26,,,,,,,,2.40,2.21,0.93*07

$GPGSV,3,1,12,20,69,131,33,16,60,263,13,21,56,053,16,10,49,176,28*75

$GPGSV,3,2,12,26,49,211,25,27,42,308,17,36,40,168,34,15,15,068,41*7B

$GPGSV,3,3,12,08,09,302,19,29,08,112,13,13,04,038,,07,02,326,*7E

$GPRMC,160522.000,A,4239.7821,N,02322.3841,E,0.72,307.04,150519,,,D*6A

$GPVTG,307.04,T,,M,0.72,N,1.33,K,D*3C

$GPGGA,160523.000,4239.7826,N,02322.3839,E,2,05,2.21,576.0,M,36.7,M,0000,0000*69

$GPGSA,A,3,20,10,29,15,26,,,,,,,,2.40,2.21,0.93*07

$GPRMC,160523.000,A,4239.7826,N,02322.3839,E,0.74,319.29,150519,,,D*65

$GPVTG,319.29,T,,M,0.74,N,1.37,K,D*3E

$GPGGA,160524.000,4239.7821,N,02322.3845,E,2,05,2.21,576.0,M,36.7,M,0000,0000*62

$GPGSA,A,3,20,10,29,15,26,,,,,,,,2.40,2.21,0.93*07

$GPRMC,160524.000,A,4239.7821,N,02322.3845,E,0.58,313.58,150519,,,D*6C

$GPVTG,313.58,T,,M,0.58,N,1.08,K,D*30

$GPGGA,160525.000,4239.7822,N,02322.3846,E,2,05,2.21,576.0,M,36.7,M,0000,0000*63

$GPGSA,A,3,20,10,29,15,26,,,,,,,,2.40,2.21,0.93*07

$GPRMC,160525.000,A,4239.7822,N,02322.3846,E,0.62,320.87,150519,,,D*66

$GPVTG,320.87,T,,M,0.62,N,1.15,K,D*37

$GPGGA,160526.000,4239.7824,N,02322.3844,E,2,05,2.21,576.0,M,36.7,M,0000,0000*64

$GPGSA,A,3,20,10,29,15,26,,,,,,,,2.40,2.21,0.93*07

$GPRMC,160526.000,A,4239.7824,N,02322.3844,E,0.69,315.13,150519,,,D*61

$GPVTG,315.13,T,,M,0.69,N,1.28,K,D*39

$GPGGA,160527.000,4239.7825,N,02322.3843,E,2,05,2.21,576.0,M,36.7,M,0000,0000*63

$GPGSA,A,3,20,10,29,15,26,,,,,,,,2.40,2.21,0.93*07

$GPGSV,3,1,12,20,69,131,33,16,60,263,15,21,56,053,17,10,49,176,27*7D

$GPGSV,3,2,12,26,48,211,25,27,42,308,14,36,40,168,34,15,15,068,41*79

$GPGSV,3,3,12,08,09,302,19,29,08,113,17,13,04,038,,07,02,326,*7B

$GPRMC,160527.000,A,4239.7825,N,02322.3843,E,0.73,308.58,150519,,,D*6E

$GPVTG,308.58,T,,M,0.73,N,1.36,K,D*3E

$GPGGA,160528.000,4239.7825,N,02322.3844,E,2,05,2.21,576.0,M,36.7,M,0000,0000*6B

$GPGSA,A,3,20,10,29,15,26,,,,,,,,2.40,2.21,0.93*07

$GPRMC,160528.000,A,4239.7825,N,02322.3844,E,0.70,317.81,150519,,,D*6F

$GPVTG,317.81,T,,M,0.70,N,1.29,K,D*39

$GPGGA,160529.000,4239.7824,N,02322.3846,E,2,05,2.21,576.0,M,36.7,M,0000,0000*69

$GPGSA,A,3,20,10,29,15,26,,,,,,,,2.40,2.21,0.93*07

$GPRMC,160529.000,A,4239.7824,N,02322.3846,E,0.65,312.38,150519,,,D*6E

$GPVTG,312.38,T,,M,0.65,N,1.20,K,D*33

$GPGGA,160530.000,4239.7823,N,02322.3849,E,2,05,2.21,576.0,M,36.7,M,0000,0000*69

$GPGSA,A,3,20,10,29,15,26,,,,,,,,2.39,2.21,0.93*09

$GPRMC,160530.000,A,4239.7823,N,02322.3849,E,0.58,318.04,150519,,,D*65

$GPVTG,318.04,T,,M,0.58,N,1.08,K,D*32

$GPGGA,160531.000,4239.7821,N,02322.3854,E,2,05,2.21,576.0,M,36.7,M,0000,0000*66

$GPGSA,A,3,20,10,29,15,26,,,,,,,,2.40,2.21,0.93*07

$GPRMC,160531.000,A,4239.7821,N,02322.3854,E,0.45,323.60,150519,,,D*6C

$GPVTG,323.60,T,,M,0.45,N,0.83,K,D*36

$GPGGA,160532.000,4239.7817,N,02322.3858,E,2,05,2.21,576.0,M,36.7,M,0000,0000*6C

$GPGSA,A,3,20,10,29,15,26,,,,,,,,2.40,2.21,0.93*07

$GPGSV,3,1,12,20,69,131,33,16,60,263,14,21,56,053,18,10,49,176,28*7C

$GPGSV,3,2,12,26,48,211,25,27,42,308,14,36,40,168,34,15,15,068,41*79

$GPGSV,3,3,12,08,09,302,19,29,08,113,17,13,04,038,,07,02,326,*7B

$GPRMC,160532.000,A,4239.7817,N,02322.3858,E,0.37,286.99,150519,,,D*6B

$GPVTG,286.99,T,,M,0.37,N,0.69,K,D*3F

$GPGGA,160533.000,4239.7819,N,02322.3857,E,2,05,2.21,576.0,M,36.7,M,0000,0000*6C

$GPGSA,A,3,20,10,29,15,26,,,,,,,,2.40,2.21,0.93*07

$GPRMC,160533.000,A,4239.7819,N,02322.3857,E,0.39,300.35,150519,,,D*6C

$GPVTG,300.35,T,,M,0.39,N,0.72,K,D*32

$GPGGA,160534.000,4239.7814,N,02322.3866,E,2,05,2.21,576.0,M,36.7,M,0000,0000*64

$GPGSA,A,3,20,10,29,15,26,,,,,,,,2.39,2.21,0.93*09

$GPRMC,160534.000,A,4239.7814,N,02322.3866,E,0.20,296.10,150519,,,D*65

$GPVTG,296.10,T,,M,0.20,N,0.37,K,D*32

$GPGGA,160535.000,4239.7814,N,02322.3865,E,2,05,2.20,576.0,M,36.7,M,0000,0000*67

$GPGSA,A,3,20,10,29,15,26,,,,,,,,2.39,2.20,0.93*08

$GPRMC,160535.000,A,4239.7814,N,02322.3865,E,0.14,321.33,150519,,,D*6C

$GPVTG,321.33,T,,M,0.14,N,0.25,K,D*3A

$GPGGA,160536.000,4239.7815,N,02322.3865,E,2,05,2.21,576.0,M,36.7,M,0000,0000*64

$GPGSA,A,3,20,10,29,15,26,,,,,,,,2.39,2.21,0.93*09

$GPRMC,160536.000,A,4239.7815,N,02322.3865,E,0.08,242.06,150519,,,D*61

$GPVTG,242.06,T,,M,0.08,N,0.14,K,D*37

$GPGGA,160537.000,4239.7814,N,02322.3865,E,2,05,2.20,576.0,M,36.7,M,0000,0000*65

$GPGSA,A,3,20,10,29,15,26,,,,,,,,2.39,2.20,0.93*08

$GPGSV,3,1,12,20,69,131,32,16,60,263,13,21,56,053,18,10,49,176,31*72

$GPGSV,3,2,12,26,48,211,26,27,42,308,17,36,40,168,34,15,15,068,41*79

$GPGSV,3,3,12,08,09,302,19,29,08,113,11,13,04,038,,07,02,326,*7D

$GPRMC,160537.000,A,4239.7814,N,02322.3865,E,0.02,59.23,150519,,,D*54

$GPVTG,59.23,T,,M,0.02,N,0.05,K,D*02

$GPGGA,160538.000,4239.7814,N,02322.3865,E,2,05,2.21,576.0,M,36.7,M,0000,0000*6B

$GPGSA,A,3,20,10,29,15,26,,,,,,,,2.39,2.21,0.93*09

$GPRMC,160538.000,A,4239.7814,N,02322.3865,E,0.07,316.57,150519,,,D*65

$GPVTG,316.57,T,,M,0.07,N,0.13,K,D*3B

$GPGGA,160539.000,4239.7815,N,02322.3865,E,2,05,2.20,576.0,M,36.7,M,0000,0000*6A

$GPGSA,A,3,20,10,29,15,26,,,,,,,,2.39,2.20,0.93*08

$GPRMC,160539.000,A,4239.7815,N,02322.3865,E,0.08,11.21,150519,,,D*5F

$GPVTG,11.21,T,,M,0.08,N,0.14,K,D*06

$GPGGA,160540.000,4239.7815,N,02322.3865,E,2,05,2.66,576.0,M,36.7,M,0000,0000*66

$GPGSA,A,3,20,10,29,15,26,,,,,,,,3.71,2.66,2.58*02

$GPRMC,160540.000,A,4239.7815,N,02322.3865,E,0.09,39.77,150519,,,D*59

$GPVTG,39.77,T,,M,0.09,N,0.17,K,D*0D

$GPGGA,160541.000,4239.7815,N,02322.3865,E,2,05,2.20,576.0,M,36.7,M,0000,0000*65

$GPGSA,A,3,20,10,29,15,26,,,,,,,,2.39,2.20,0.93*08

$GPRMC,160541.000,A,4239.7815,N,02322.3865,E,0.18,311.74,150519,,,D*62

$GPVTG,311.74,T,,M,0.18,N,0.34,K,D*36

$GPGGA,160542.000,4239.7815,N,02322.3865,E,2,05,2.20,576.0,M,36.7,M,0000,0000*66

$GPGSA,A,3,20,10,29,15,26,,,,,,,,2.39,2.20,0.93*08

$GPGSV,3,1,12,20,69,131,32,16,60,263,11,21,56,053,18,10,49,175,30*72

$GPGSV,3,2,12,26,48,211,27,27,42,308,18,36,40,168,34,15,15,068,41*77

$GPGSV,3,3,12,08,09,302,19,29,08,113,13,13,04,038,,07,02,325,*7C

$GPRMC,160542.000,A,4239.7815,N,02322.3865,E,0.09,338.18,150519,,,D*60

$GPVTG,338.18,T,,M,0.09,N,0.17,K,D*36

$GPGGA,160543.000,4239.7816,N,02322.3864,E,2,05,2.21,576.0,M,36.7,M,0000,0000*64

$GPGSA,A,3,20,10,29,15,26,,,,,,,,2.39,2.21,0.93*09

$GPRMC,160543.000,A,4239.7816,N,02322.3864,E,0.11,333.77,150519,,,D*68

$GPVTG,333.77,T,,M,0.11,N,0.20,K,D*39

$GPGGA,160544.000,4239.7816,N,02322.3864,E,2,05,2.20,576.0,M,36.7,M,0000,0000*62

$GPGSA,A,3,20,10,29,15,26,,,,,,,,2.39,2.20,0.93*08

$GPRMC,160544.000,A,4239.7816,N,02322.3864,E,0.13,341.19,150519,,,D*60

$GPVTG,341.19,T,,M,0.13,N,0.24,K,D*32

$GPGGA,160545.000,4239.7817,N,02322.3864,E,2,05,2.20,576.0,M,36.7,M,0000,0000*62

$GPGSA,A,3,20,10,29,15,26,,,,,,,,2.39,2.20,0.93*08

$GPRMC,160545.000,A,4239.7817,N,02322.3864,E,0.19,333.53,150519,,,D*61

$GPVTG,333.53,T,,M,0.19,N,0.35,K,D*33

$GPGGA,160546.000,4239.7817,N,02322.3863,E,2,05,2.20,576.0,M,36.7,M,0000,0000*66

$GPGSA,A,3,20,10,29,15,26,,,,,,,,2.39,2.20,0.93*08

$GPRMC,160546.000,A,4239.7817,N,02322.3863,E,0.35,322.18,150519,,,D*64

$GPVTG,322.18,T,,M,0.35,N,0.64,K,D*36

$GPGGA,160547.000,4239.7818,N,02322.3863,E,2,05,2.20,576.0,M,36.7,M,0000,0000*68

$GPGSA,A,3,20,10,29,15,26,,,,,,,,2.39,2.20,0.93*08

$GPGSV,3,1,12,20,69,131,31,16,60,263,14,21,56,053,17,10,49,175,27*7D

$GPGSV,3,2,12,26,48,211,28,27,42,308,18,36,40,168,34,15,15,068,41*78

$GPGSV,3,3,12,08,09,302,18,29,08,113,13,13,04,038,,07,02,325,*7D

$GPRMC,160547.000,A,4239.7818,N,02322.3863,E,0.38,331.45,150519,,,D*6D

$GPVTG,331.45,T,,M,0.38,N,0.71,K,D*35

$GPGGA,160548.000,4239.7819,N,02322.3862,E,2,05,2.20,576.0,M,36.7,M,0000,0000*67

$GPGSA,A,3,20,10,29,15,26,,,,,,,,2.39,2.20,0.93*08

$GPRMC,160548.000,A,4239.7819,N,02322.3862,E,0.33,318.17,150519,,,D*65

$GPVTG,318.17,T,,M,0.33,N,0.62,K,D*30

$GPGGA,160549.000,4239.7820,N,02322.3861,E,2,05,2.20,576.0,M,36.7,M,0000,0000*6F

$GPGSA,A,3,20,10,29,15,26,,,,,,,,2.39,2.20,0.93*08

$GPRMC,160549.000,A,4239.7820,N,02322.3861,E,0.26,305.78,150519,,,D*6C

$GPVTG,305.78,T,,M,0.26,N,0.48,K,D*39

$GPGGA,160550.000,4239.7820,N,02322.3860,E,2,05,2.20,576.0,M,36.7,M,0000,0000*66

$GPGSA,A,3,20,10,29,15,26,,,,,,,,2.39,2.20,0.93*08

$GPRMC,160550.000,A,4239.7820,N,02322.3860,E,0.34,287.09,150519,,,D*6B

$GPVTG,287.09,T,,M,0.34,N,0.62,K,D*3F

$GPGGA,160551.000,4239.7821,N,02322.3859,E,2,05,2.20,576.0,M,36.7,M,0000,0000*6C

$GPGSA,A,3,20,10,29,15,26,,,,,,,,2.39,2.20,0.93*08

$GPRMC,160551.000,A,4239.7821,N,02322.3859,E,0.44,274.48,150519,,,D*6F

$GPVTG,274.48,T,,M,0.44,N,0.82,K,D*3F

$GPGGA,160552.000,4239.7821,N,02322.3857,E,2,05,2.20,576.0,M,36.7,M,0000,0000*61

$GPGSA,A,3,20,10,29,15,26,,,,,,,,2.39,2.20,0.93*08

$GPGSV,3,1,12,20,69,130,31,16,60,262,11,21,56,053,17,10,49,175,25*7A

$GPGSV,3,2,12,26,48,211,27,27,42,308,18,36,40,168,34,15,15,068,41*77

$GPGSV,3,3,12,08,09,302,18,29,08,113,15,13,04,038,,07,02,325,*7B

$GPRMC,160552.000,A,4239.7821,N,02322.3857,E,0.42,274.45,150519,,,D*69

$GPVTG,274.45,T,,M,0.42,N,0.78,K,D*31

$GPGGA,160553.000,4239.7821,N,02322.3856,E,2,05,2.20,576.0,M,36.7,M,0000,0000*61

$GPGSA,A,3,20,10,29,15,26,,,,,,,,2.39,2.20,0.93*08

$GPRMC,160553.000,A,4239.7821,N,02322.3856,E,0.41,285.52,150519,,,D*62

$GPVTG,285.52,T,,M,0.41,N,0.77,K,D*35

$GPGGA,160554.000,4239.7821,N,02322.3854,E,2,05,2.20,576.0,M,36.7,M,0000,0000*64

$GPGSA,A,3,20,10,29,15,26,,,,,,,,2.39,2.20,0.93*08

$GPRMC,160554.000,A,4239.7821,N,02322.3854,E,0.39,295.19,150519,,,D*66

$GPVTG,295.19,T,,M,0.39,N,0.72,K,D*31

$GPGGA,160555.000,4239.7822,N,02322.3853,E,2,05,2.20,576.0,M,36.7,M,0000,0000*61

$GPGSA,A,3,20,10,29,15,26,,,,,,,,2.39,2.20,0.93*08

$GPRMC,160555.000,A,4239.7822,N,02322.3853,E,0.43,303.46,150519,,,D*6A

$GPVTG,303.46,T,,M,0.43,N,0.81,K,D*34

$GPGGA,160556.000,4239.7822,N,02322.3851,E,2,05,2.20,576.0,M,36.7,M,0000,0000*60

$GPGSA,A,3,20,10,29,15,26,,,,,,,,2.39,2.20,0.93*08

$GPRMC,160556.000,A,4239.7822,N,02322.3851,E,0.55,296.72,150519,,,D*66

$GPVTG,296.72,T,,M,0.55,N,1.02,K,D*33

$GPGGA,160557.000,4239.7823,N,02322.3849,E,2,05,2.20,576.0,M,36.7,M,0000,0000*69

$GPGSA,A,3,20,10,29,15,26,,,,,,,,2.39,2.20,0.93*08

$GPGSV,3,1,12,20,69,130,30,16,60,262,12,21,56,053,17,10,49,175,23*7E

$GPGSV,3,2,12,26,48,211,26,27,42,308,18,36,40,168,35,15,15,068,40*76

$GPGSV,3,3,12,08,09,302,19,29,08,113,14,13,04,038,,07,02,325,*7B

$GPRMC,160557.000,A,4239.7823,N,02322.3849,E,0.62,318.13,150519,,,D*6B

$GPVTG,318.13,T,,M,0.62,N,1.14,K,D*30

$GPGGA,160558.000,4239.7785,N,02322.3835,E,2,04,4.56,576.6,M,36.7,M,0000,0000*6E

$GPGSA,A,3,20,10,15,26,,,,,,,,,4.66,4.56,0.95*0E

$GPRMC,160558.000,A,4239.7785,N,02322.3835,E,0.75,319.51,150519,,,D*6D

$GPVTG,319.51,T,,M,0.75,N,1.39,K,D*3E

$GPGGA,160559.000,4239.7750,N,02322.3839,E,2,03,12.45,576.9,M,36.7,M,0000,0000*56

$GPGSA,A,2,20,15,26,,,,,,,,,,12.49,12.45,1.00*0C

$GPRMC,160559.000,A,4239.7750,N,02322.3839,E,0.67,312.64,150519,,,D*66

$GPVTG,312.64,T,,M,0.67,N,1.25,K,D*3D

$GPGGA,160600.000,4239.7724,N,02322.3848,E,2,03,12.47,577.1,M,36.7,M,0000,0000*57

$GPGSA,A,2,20,15,26,,,,,,,,,,12.51,12.47,1.00*07

$GPRMC,160600.000,A,4239.7724,N,02322.3848,E,0.55,319.20,150519,,,D*66

$GPVTG,319.20,T,,M,0.55,N,1.02,K,D*32

$GPGGA,160601.000,4239.7700,N,02322.3859,E,2,03,12.49,577.2,M,36.7,M,0000,0000*5D

$GPGSA,A,2,20,15,26,,,,,,,,,,12.53,12.49,1.00*0B

$GPRMC,160601.000,A,4239.7700,N,02322.3859,E,0.36,311.05,150519,,,D*6B

$GPVTG,311.05,T,,M,0.36,N,0.67,K,D*3A

$GPGGA,160602.000,4239.7694,N,02322.3854,E,2,04,4.56,577.4,M,36.7,M,0000,0000*67

$GPGSA,A,3,20,10,15,26,,,,,,,,,4.66,4.56,0.95*0E

$GPGSV,3,1,12,20,69,130,31,16,60,262,12,21,56,053,19,10,49,175,20*72

$GPGSV,3,2,12,26,48,210,26,27,43,308,18,36,40,168,35,15,15,068,40*76

$GPGSV,3,3,12,08,09,302,19,29,08,113,,13,04,038,,07,02,325,*7E

$GPRMC,160602.000,A,4239.7694,N,02322.3854,E,0.39,330.33,150519,,,D*60

$GPVTG,330.33,T,,M,0.39,N,0.72,K,D*37

$GPGGA,160603.000,4239.7689,N,02322.3850,E,2,04,4.57,577.4,M,36.7,M,0000,0000*6F

$GPGSA,A,3,20,10,15,26,,,,,,,,,4.67,4.57,0.95*0E

$GPRMC,160603.000,A,4239.7689,N,02322.3850,E,0.43,326.97,150519,,,D*6D

$GPVTG,326.97,T,,M,0.43,N,0.79,K,D*38

$GPGGA,160604.000,4239.7690,N,02322.3849,E,2,03,12.51,577.4,M,36.7,M,0000,0000*5E

$GPGSA,A,2,20,15,26,,,,,,,,,,12.55,12.51,1.00*04

$GPRMC,160604.000,A,4239.7690,N,02322.3849,E,0.39,333.70,150519,,,D*6A

$GPVTG,333.70,T,,M,0.39,N,0.72,K,D*33

$GPGGA,160605.000,4239.7691,N,02322.3848,E,2,04,4.57,577.4,M,36.7,M,0000,0000*69

$GPGSA,A,3,20,10,15,26,,,,,,,,,4.67,4.57,0.95*0E

$GPRMC,160605.000,A,4239.7691,N,02322.3848,E,0.38,315.91,150519,,,D*61

$GPVTG,315.91,T,,M,0.38,N,0.70,K,D*3B

$GPGGA,160606.000,4239.7691,N,02322.3847,E,2,03,12.53,577.4,M,36.7,M,0000,0000*51

$GPGSA,A,2,20,15,26,,,,,,,,,,12.57,12.53,1.00*04

$GPRMC,160606.000,A,4239.7691,N,02322.3847,E,0.26,343.71,150519,,,D*6F

$GPVTG,343.71,T,,M,0.26,N,0.49,K,D*33

$GPGGA,160607.000,4239.7692,N,02322.3847,E,2,03,12.53,577.4,M,36.7,M,0000,0000*53

$GPGSA,A,2,20,15,26,,,,,,,,,,12.57,12.53,1.00*04

$GPGSV,3,1,12,20,69,130,31,16,60,262,13,21,56,053,18,10,49,175,19*78

$GPGSV,3,2,12,26,48,210,24,27,43,308,19,36,40,168,35,15,15,068,40*75

$GPGSV,3,3,12,08,09,302,19,29,08,113,,13,04,038,,07,02,325,*7E

$GPRMC,160607.000,A,4239.7692,N,02322.3847,E,0.06,336.99,150519,,,D*6B

$GPVTG,336.99,T,,M,0.06,N,0.11,K,D*38

$GPGGA,160608.000,4239.7692,N,02322.3847,E,2,03,12.56,577.4,M,36.7,M,0000,0000*59

$GPGSA,A,2,20,15,26,,,,,,,,,,12.60,12.56,1.00*05

$GPRMC,160608.000,A,4239.7692,N,02322.3847,E,0.03,232.29,150519,,,D*6F

$GPVTG,232.29,T,,M,0.03,N,0.05,K,D*36

$GPGGA,160609.000,4239.7691,N,02322.3847,E,2,04,4.58,577.4,M,36.7,M,0000,0000*65

$GPGSA,A,3,20,10,15,26,,,,,,,,,4.68,4.58,0.95*0E

$GPRMC,160609.000,A,4239.7691,N,02322.3847,E,0.09,223.31,150519,,,D*6E

$GPVTG,223.31,T,,M,0.09,N,0.16,K,D*37

$GPGGA,160610.000,4239.7691,N,02322.3847,E,2,04,2.32,577.4,M,36.7,M,0000,0000*67

$GPGSA,A,3,20,29,15,26,,,,,,,,,2.50,2.32,0.93*05

$GPRMC,160610.000,A,4239.7691,N,02322.3847,E,0.28,192.35,150519,,,D*68

$GPVTG,192.35,T,,M,0.28,N,0.52,K,D*39

$GPGGA,160611.000,4239.7690,N,02322.3847,E,2,04,2.32,577.4,M,36.7,M,0000,0000*67

$GPGSA,A,3,20,29,15,26,,,,,,,,,2.50,2.32,0.93*05

$GPRMC,160611.000,A,4239.7690,N,02322.3847,E,0.12,165.17,150519,,,D*69

$GPVTG,165.17,T,,M,0.12,N,0.21,K,D*3C

$GPGGA,160612.000,4239.7690,N,02322.3847,E,2,04,2.32,577.4,M,36.7,M,0000,0000*64

$GPGSA,A,3,20,29,15,26,,,,,,,,,2.50,2.32,0.93*05

$GPGSV,3,1,12,20,69,130,32,16,60,262,14,21,56,053,18,10,49,175,17*72

$GPGSV,3,2,12,26,48,210,24,27,43,308,18,36,40,168,34,15,15,068,39*7B

$GPGSV,3,3,12,08,09,302,18,29,08,113,20,13,04,038,,07,02,325,*7D

$GPRMC,160612.000,A,4239.7690,N,02322.3847,E,0.25,201.57,150519,,,D*6B

$GPVTG,201.57,T,,M,0.25,N,0.46,K,D*3C

$GPGGA,160613.000,4239.7689,N,02322.3847,E,2,04,2.32,577.4,M,36.7,M,0000,0000*6D

$GPGSA,A,3,20,29,15,26,,,,,,,,,2.50,2.32,0.93*05

$GPRMC,160613.000,A,4239.7689,N,02322.3847,E,0.18,191.10,150519,,,D*65

$GPVTG,191.10,T,,M,0.18,N,0.34,K,D*3E

$GPGGA,160614.000,4239.7688,N,02322.3847,E,2,04,2.32,577.4,M,36.7,M,0000,0000*6B

$GPGSA,A,3,20,29,15,26,,,,,,,,,2.50,2.32,0.93*05

$GPRMC,160614.000,A,4239.7688,N,02322.3847,E,0.10,155.68,150519,,,D*6C

$GPVTG,155.68,T,,M,0.10,N,0.19,K,D*3E

$GPGGA,160615.000,4239.7688,N,02322.3847,E,2,04,2.32,577.5,M,36.7,M,0000,0000*6B

$GPGSA,A,3,20,29,15,26,,,,,,,,,2.50,2.32,0.93*05

$GPRMC,160615.000,A,4239.7688,N,02322.3847,E,0.24,133.24,150519,,,D*62

$GPVTG,133.24,T,,M,0.24,N,0.44,K,D*39

$GPGGA,160616.000,4239.7687,N,02322.3848,E,2,04,2.32,577.5,M,36.7,M,0000,0000*68

$GPGSA,A,3,20,29,15,26,,,,,,,,,2.50,2.32,0.93*05

$GPRMC,160616.000,A,4239.7687,N,02322.3848,E,0.38,101.00,150519,,,D*6B

$GPVTG,101.00,T,,M,0.38,N,0.70,K,D*34

$GPGGA,160617.000,4239.7687,N,02322.3850,E,2,04,2.32,577.5,M,36.7,M,0000,0000*60

$GPGSA,A,3,20,29,15,26,,,,,,,,,2.50,2.32,0.93*05

$GPGSV,3,1,12,20,69,130,33,16,60,262,12,21,56,053,20,10,50,175,16*77

$GPGSV,3,2,12,26,48,210,24,27,43,308,15,36,40,168,34,15,15,068,39*76

$GPGSV,3,3,12,08,10,302,19,29,08,113,19,13,04,038,,07,02,325,*7E

$GPRMC,160617.000,A,4239.7687,N,02322.3850,E,0.47,124.43,150519,,,D*6B

$GPVTG,124.43,T,,M,0.47,N,0.88,K,D*3B

$GPGGA,160618.000,4239.7686,N,02322.3851,E,2,04,2.32,577.5,M,36.7,M,0000,0000*6F

$GPGSA,A,3,20,29,15,26,,,,,,,,,2.50,2.32,0.93*05

$GPRMC,160618.000,A,4239.7686,N,02322.3851,E,0.64,131.88,150519,,,D*66

$GPVTG,131.88,T,,M,0.64,N,1.19,K,D*30

$GPGGA,160619.000,4239.7671,N,02322.3866,E,2,04,2.32,577.5,M,36.7,M,0000,0000*62

$GPGSA,A,3,20,29,15,26,,,,,,,,,2.50,2.32,0.93*05

$GPRMC,160619.000,A,4239.7671,N,02322.3866,E,0.79,133.67,150519,,,D*64

$GPVTG,133.67,T,,M,0.79,N,1.47,K,D*34

$GPGGA,160620.000,4239.7659,N,02322.3880,E,2,04,2.32,577.5,M,36.7,M,0000,0000*6A

$GPGSA,A,3,20,29,15,26,,,,,,,,,2.50,2.32,0.93*05

$GPRMC,160620.000,A,4239.7659,N,02322.3880,E,0.89,131.39,150519,,,D*6A

$GPVTG,131.39,T,,M,0.89,N,1.65,K,D*32

$GPGGA,160621.000,4239.7640,N,02322.3900,E,2,04,2.31,577.6,M,36.7,M,0000,0000*6A

$GPGSA,A,3,20,29,15,26,,,,,,,,,2.50,2.31,0.93*06

$GPRMC,160621.000,A,4239.7640,N,02322.3900,E,1.08,132.41,150519,,,D*6E

$GPVTG,132.41,T,,M,1.08,N,2.00,K,D*36

$GPGGA,160622.000,4239.7622,N,02322.3920,E,2,04,2.31,577.6,M,36.7,M,0000,0000*6F

$GPGSA,A,3,20,29,15,26,,,,,,,,,2.50,2.31,0.93*06

$GPGSV,3,1,12,20,69,130,33,16,60,262,,21,56,053,21,10,50,175,13*70

$GPGSV,3,2,12,26,48,210,24,27,43,308,14,36,40,168,35,15,15,067,39*79

$GPGSV,3,3,12,08,10,302,19,29,08,113,16,13,04,038,,07,02,325,*71

$GPRMC,160622.000,A,4239.7622,N,02322.3920,E,1.26,136.57,150519,,,D*64

$GPVTG,136.57,T,,M,1.26,N,2.34,K,D*3E

$GPGGA,160623.000,4239.7605,N,02322.3937,E,2,04,2.32,577.6,M,36.7,M,0000,0000*6E

$GPGSA,A,3,20,29,15,26,,,,,,,,,2.50,2.32,0.93*05

$GPRMC,160623.000,A,4239.7605,N,02322.3937,E,1.44,143.37,150519,,,D*66

$GPVTG,143.37,T,,M,1.44,N,2.66,K,D*39

$GPGGA,160624.000,4239.7588,N,02322.3952,E,2,04,2.31,577.6,M,36.7,M,0000,0000*6F

$GPGSA,A,3,20,29,15,26,,,,,,,,,2.49,2.31,0.93*0E

$GPRMC,160624.000,A,4239.7588,N,02322.3952,E,1.60,144.76,150519,,,D*60

$GPVTG,144.76,T,,M,1.60,N,2.97,K,D*33

$GPGGA,160625.000,4239.7578,N,02322.3961,E,2,04,2.31,577.5,M,36.7,M,0000,0000*62

$GPGSA,A,3,20,29,15,26,,,,,,,,,2.49,2.31,0.93*0E

