
$GPGSA,A,3,14,08,32,27,22,,,,,,,,2.26,2.03,0.98*0D

$GPRMC,180803.000,A,4244.0907,N,02318.0160,E,0.39,30.84,030619,,,A*53

$GPVTG,30.84,T,,M,0.39,N,0.71,K,A*0E

$GPGGA,180804.000,4244.0908,N,02318.0161,E,1,05,2.03,313.5,M,36.7,M,,*62

$GPGSA,A,3,14,08,32,27,22,,,,,,,,2.26,2.03,0.98*0D

$GPRMC,180804.000,A,4244.0908,N,02318.0161,E,0.46,23.73,030619,,,A*58

$GPVTG,23.73,T,,M,0.46,N,0.85,K,A*07

$GPGGA,180805.000,4244.0907,N,02318.0161,E,1,05,2.03,314.3,M,36.7,M,,*6D

$GPGSA,A,3,14,08,32,27,22,,,,,,,,2.26,2.03,0.98*0D

$GPGSV,3,1,09,08,63,221,34,32,55,094,27,14,52,127,25,22,39,253,33*7F

$GPGSV,3,2,09,01,38,302,22,27,37,174,33,03,18,246,19,28,11,316,*75

$GPGSV,3,3,09,49,,,29*76

$GPRMC,180805.000,A,4244.0907,N,02318.0161,E,0.41,20.23,030619,,,A*57

$GPVTG,20.23,T,,M,0.41,N,0.76,K,A*0A

$GPGGA,180806.000,4244.0907,N,02318.0161,E,1,05,2.03,315.2,M,36.7,M,,*6E

$GPGSA,A,3,14,08,32,27,22,,,,,,,,2.26,2.03,0.98*0D

$GPRMC,180806.000,A,4244.0907,N,02318.0161,E,0.35,11.41,030619,,,A*51

$GPVTG,11.41,T,,M,0.35,N,0.66,K,A*0E

$GPGGA,180807.000,4244.0902,N,02318.0158,E,1,05,2.33,316.3,M,36.7,M,,*61

$GPGSA,A,3,14,08,32,27,22,,,,,,,,5.59,2.33,5.08*0D

$GPRMC,180807.000,A,4244.0902,N,02318.0158,E,0.14,28.28,030619,,,A*59

$GPVTG,28.28,T,,M,0.14,N,0.25,K,A*0F

$GPGGA,180808.000,4244.0896,N,02318.0153,E,1,05,2.03,317.3,M,36.7,M,,*6B

$GPGSA,A,3,14,08,32,27,22,,,,,,,,2.26,2.03,0.98*0D

$GPRMC,180808.000,A,4244.0896,N,02318.0153,E,0.10,202.29,030619,,,A*6E

$GPVTG,202.29,T,,M,0.10,N,0.18,K,A*3E

$GPGGA,180809.000,4244.0892,N,02318.0150,E,1,05,2.03,318.2,M,36.7,M,,*63

$GPGSA,A,3,14,08,32,27,22,,,,,,,,2.26,2.03,0.98*0D

$GPRMC,180809.000,A,4244.0892,N,02318.0150,E,0.16,218.36,030619,,,A*6B

$GPVTG,218.36,T,,M,0.16,N,0.30,K,A*37

$GPGGA,180810.000,4244.0889,N,02318.0147,E,1,05,2.03,319.1,M,36.7,M,,*65

$GPGSA,A,3,14,08,32,27,22,,,,,,,,2.26,2.03,0.98*0D

$GPGSV,3,1,09,08,62,221,35,32,55,094,29,14,52,127,27,22,39,253,34*74

$GPGSV,3,2,09,01,38,302,23,27,37,174,33,03,18,246,22,28,11,316,*7C

$GPGSV,3,3,09,49,,,30*7E

$GPRMC,180810.000,A,4244.0889,N,02318.0147,E,0.20,221.78,030619,,,A*6A

$GPVTG,221.78,T,,M,0.20,N,0.36,K,A*34

$GPGGA,180811.000,4244.0887,N,02318.0145,E,1,05,2.03,320.1,M,36.7,M,,*62

$GPGSA,A,3,14,08,32,27,22,,,,,,,,2.26,2.03,0.98*0D

$GPRMC,180811.000,A,4244.0887,N,02318.0145,E,0.16,203.04,030619,,,A*69

$GPVTG,203.04,T,,M,0.16,N,0.29,K,A*34

$GPGGA,180812.000,4244.0884,N,02318.0142,E,1,05,2.03,321.0,M,36.7,M,,*65

$GPGSA,A,3,14,08,32,27,22,,,,,,,,2.25,2.03,0.98*0E

$GPRMC,180812.000,A,4244.0884,N,02318.0142,E,0.15,227.31,030619,,,A*6D

$GPVTG,227.31,T,,M,0.15,N,0.28,K,A*36

$GPGGA,180813.000,4244.0882,N,02318.0141,E,1,05,2.03,321.9,M,36.7,M,,*68

$GPGSA,A,3,14,08,32,27,22,,,,,,,,2.25,2.03,0.98*0E

$GPRMC,180813.000,A,4244.0882,N,02318.0141,E,0.04,153.97,030619,,,A*65

$GPVTG,153.97,T,,M,0.04,N,0.08,K,A*38

$GPGGA,180814.000,4244.0879,N,02318.0138,E,1,05,2.03,322.8,M,36.7,M,,*67

$GPGSA,A,3,14,08,32,27,22,,,,,,,,2.25,2.03,0.98*0E

$GPRMC,180814.000,A,4244.0879,N,02318.0138,E,0.06,254.08,030619,,,A*68

$GPVTG,254.08,T,,M,0.06,N,0.10,K,A*31

$GPGGA,180815.000,4244.0875,N,02318.0136,E,1,05,2.03,323.8,M,36.7,M,,*65

$GPGSA,A,3,14,08,32,27,22,,,,,,,,2.25,2.03,0.98*0E

$GPGSV,3,1,09,08,62,221,35,32,55,094,29,14,52,127,28,22,39,253,34*7B

$GPGSV,3,2,09,01,38,302,23,27,37,174,33,03,18,246,22,28,11,316,*7C

$GPGSV,3,3,09,49,,,30*7E

$GPRMC,180815.000,A,4244.0875,N,02318.0136,E,0.13,187.15,030619,,,A*6E

$GPVTG,187.15,T,,M,0.13,N,0.24,K,A*33

$GPGGA,180816.000,4244.0873,N,02318.0134,E,1,05,2.03,324.7,M,36.7,M,,*6A

$GPGSA,A,3,14,08,32,27,22,,,,,,,,2.25,2.03,0.98*0E

$GPRMC,180816.000,A,4244.0873,N,02318.0134,E,0.14,149.24,030619,,,A*6E

$GPVTG,149.24,T,,M,0.14,N,0.27,K,A*37

$GPGGA,180817.000,4244.0869,N,02318.0131,E,1,05,2.03,325.7,M,36.7,M,,*64

$GPGSA,A,3,14,08,32,27,22,,,,,,,,2.25,2.03,0.98*0E

$GPRMC,180817.000,A,4244.0869,N,02318.0131,E,0.09,184.70,030619,,,A*6D

$GPVTG,184.70,T,,M,0.09,N,0.17,K,A*38

$GPGGA,180818.000,4244.0867,N,02318.0130,E,1,05,2.03,326.6,M,36.7,M,,*66

$GPGSA,A,3,14,08,32,27,22,,,,,,,,2.25,2.03,0.98*0E

$GPRMC,180818.000,A,4244.0867,N,02318.0130,E,0.09,115.67,030619,,,A*63

$GPVTG,115.67,T,,M,0.09,N,0.16,K,A*37

$GPGGA,180819.000,4244.0862,N,02318.0126,E,1,05,2.03,327.4,M,36.7,M,,*66

$GPGSA,A,3,14,08,32,27,22,,,,,,,,2.25,2.03,0.98*0E

$GPRMC,180819.000,A,4244.0862,N,02318.0126,E,0.07,148.61,030619,,,A*60

$GPVTG,148.61,T,,M,0.07,N,0.14,K,A*35

$GPGGA,180820.000,4244.0860,N,02318.0123,E,1,05,2.03,328.2,M,36.7,M,,*62

$GPGSA,A,3,14,08,32,27,22,,,,,,,,2.25,2.03,0.98*0E

$GPGSV,3,1,09,08,62,221,35,32,55,094,27,14,52,126,28,22,39,253,34*74

$GPGSV,3,2,09,01,38,302,22,27,37,174,33,03,18,246,24,28,11,316,*7B

$GPGSV,3,3,09,49,,,29*76

$GPRMC,180820.000,A,4244.0860,N,02318.0123,E,0.08,323.39,030619,,,A*60

$GPVTG,323.39,T,,M,0.08,N,0.15,K,A*39

$GPGGA,180821.000,4244.0859,N,02318.0120,E,1,05,2.03,329.2,M,36.7,M,,*6B

$GPGSA,A,3,14,08,32,27,22,,,,,,,,2.25,2.03,0.98*0E

$GPRMC,180821.000,A,4244.0859,N,02318.0120,E,0.20,340.59,030619,,,A*61

$GPVTG,340.59,T,,M,0.20,N,0.37,K,A*30

$GPGGA,180822.000,4244.0857,N,02318.0118,E,1,05,2.03,330.1,M,36.7,M,,*66

$GPGSA,A,3,14,08,32,27,22,,,,,,,,2.25,2.03,0.98*0E

$GPRMC,180822.000,A,4244.0857,N,02318.0118,E,0.26,358.04,030619,,,A*60

$GPVTG,358.04,T,,M,0.26,N,0.47,K,A*30

$GPGGA,180823.000,4244.0854,N,02318.0115,E,1,05,2.32,330.8,M,36.7,M,,*62

$GPGSA,A,3,14,08,32,27,22,,,,,,,,5.59,2.32,5.08*0C

$GPRMC,180823.000,A,4244.0854,N,02318.0115,E,0.16,1.50,030619,,,A*62

$GPVTG,1.50,T,,M,0.16,N,0.30,K,A*3D

$GPGGA,180824.000,4244.0854,N,02318.0114,E,1,05,2.32,331.6,M,36.7,M,,*6B

$GPGSA,A,3,14,08,32,27,22,,,,,,,,5.59,2.32,5.08*0C

$GPRMC,180824.000,A,4244.0854,N,02318.0114,E,0.18,18.73,030619,,,A*53

$GPVTG,18.73,T,,M,0.18,N,0.33,K,A*09

$GPGGA,180825.000,4244.0852,N,02318.0112,E,1,05,2.02,332.3,M,36.7,M,,*6F

$GPGSA,A,3,14,08,32,27,22,,,,,,,,2.25,2.02,0.98*0F

$GPGSV,3,1,09,08,62,221,35,32,55,094,25,14,52,126,27,22,39,253,33*7E

$GPGSV,3,2,09,01,38,302,21,27,37,174,34,03,18,246,24,28,11,316,*7F

$GPGSV,3,3,09,49,,,29*76

$GPRMC,180825.000,A,4244.0852,N,02318.0112,E,0.23,6.79,030619,,,A*6F

$GPVTG,6.79,T,,M,0.23,N,0.43,K,A*33

$GPGGA,180826.000,4244.0850,N,02318.0111,E,1,05,2.32,333.1,M,36.7,M,,*6D

$GPGSA,A,3,14,08,32,27,22,,,,,,,,5.59,2.32,5.09*0D

$GPRMC,180826.000,A,4244.0850,N,02318.0111,E,0.28,357.26,030619,,,A*6B

$GPVTG,357.26,T,,M,0.28,N,0.51,K,A*36

$GPGGA,180827.000,4244.0848,N,02318.0111,E,1,05,2.32,333.9,M,36.7,M,,*6D

$GPGSA,A,3,14,08,32,27,22,,,,,,,,5.59,2.32,5.09*0D

$GPRMC,180827.000,A,4244.0848,N,02318.0111,E,0.27,17.30,030619,,,A*5C

$GPVTG,17.30,T,,M,0.27,N,0.51,K,A*09

$GPGGA,180828.000,4244.0847,N,02318.0111,E,1,05,2.02,334.6,M,36.7,M,,*66

$GPGSA,A,3,14,08,32,27,22,,,,,,,,2.25,2.02,0.98*0F

$GPRMC,180828.000,A,4244.0847,N,02318.0111,E,0.36,16.09,030619,,,A*57

$GPVTG,16.09,T,,M,0.36,N,0.66,K,A*06

$GPGGA,180829.000,4244.0846,N,02318.0110,E,1,05,2.02,335.3,M,36.7,M,,*63

$GPGSA,A,3,14,08,32,27,22,,,,,,,,2.25,2.02,0.98*0F

$GPRMC,180829.000,A,4244.0846,N,02318.0110,E,0.37,10.49,030619,,,A*55

$GPVTG,10.49,T,,M,0.37,N,0.68,K,A*0B

$GPGGA,180830.000,4244.0844,N,02318.0110,E,1,05,2.32,336.0,M,36.7,M,,*6A

$GPGSA,A,3,14,08,32,27,22,,,,,,,,5.59,2.32,5.09*0D

$GPGSV,3,1,09,08,62,221,35,32,55,094,23,14,52,126,26,22,39,253,33*79

$GPGSV,3,2,09,01,38,302,21,27,37,174,34,03,18,246,24,28,11,316,*7F

$GPGSV,3,3,09,49,,,29*76

$GPRMC,180830.000,A,4244.0844,N,02318.0110,E,0.34,19.43,030619,,,A*5F

$GPVTG,19.43,T,,M,0.34,N,0.62,K,A*01

$GPGGA,180831.000,4244.0841,N,02318.0111,E,1,05,2.02,336.6,M,36.7,M,,*6A

$GPGSA,A,3,14,08,32,27,22,,,,,,,,2.25,2.02,0.98*0F

$GPRMC,180831.000,A,4244.0841,N,02318.0111,E,0.29,23.43,030619,,,A*5F

$GPVTG,23.43,T,,M,0.29,N,0.54,K,A*01

$GPGGA,180832.000,4244.0839,N,02318.0113,E,1,05,2.02,337.4,M,36.7,M,,*67

$GPGSA,A,3,14,08,32,27,22,,,,,,,,2.25,2.02,0.98*0F

$GPRMC,180832.000,A,4244.0839,N,02318.0113,E,0.31,46.56,030619,,,A*5F

$GPVTG,46.56,T,,M,0.31,N,0.58,K,A*03

$GPGGA,180833.000,4244.0838,N,02318.0114,E,1,05,2.02,338.2,M,36.7,M,,*69

$GPGSA,A,3,14,08,32,27,22,,,,,,,,2.25,2.02,0.98*0F

$GPRMC,180833.000,A,4244.0838,N,02318.0114,E,0.34,49.36,030619,,,A*54

$GPVTG,49.36,T,,M,0.34,N,0.63,K,A*07

$GPGGA,180834.000,4244.0837,N,02318.0116,E,1,05,2.02,339.0,M,36.7,M,,*60

$GPGSA,A,3,14,08,32,27,22,,,,,,,,2.25,2.02,0.98*0F

$GPRMC,180834.000,A,4244.0837,N,02318.0116,E,0.40,43.69,030619,,,A*5D

$GPVTG,43.69,T,,M,0.40,N,0.75,K,A*03

$GPGGA,180835.000,4244.0837,N,02318.0119,E,1,05,2.02,339.7,M,36.7,M,,*69

$GPGSA,A,3,14,08,32,27,22,,,,,,,,2.25,2.02,0.98*0F

$GPGSV,3,1,09,08,62,221,35,32,55,093,21,14,52,126,25,22,39,253,33*7F

$GPGSV,3,2,09,01,38,302,20,27,37,174,35,49,37,206,31,03,18,246,24*7E

$GPGSV,3,3,09,28,11,316,*4E

$GPRMC,180835.000,A,4244.0837,N,02318.0119,E,0.51,46.73,030619,,,A*5D

$GPVTG,46.73,T,,M,0.51,N,0.94,K,A*02

$GPGGA,180836.000,4244.0838,N,02318.0120,E,1,05,2.02,340.5,M,36.7,M,,*63

$GPGSA,A,3,14,08,32,27,22,,,,,,,,2.25,2.02,0.98*0F

$GPRMC,180836.000,A,4244.0838,N,02318.0120,E,0.56,43.92,030619,,,A*56

$GPVTG,43.92,T,,M,0.56,N,1.04,K,A*07

$GPGGA,180837.000,4244.0838,N,02318.0122,E,1,05,2.02,341.1,M,36.7,M,,*65

$GPGSA,A,3,14,08,32,27,22,,,,,,,,2.25,2.02,0.98*0F

$GPRMC,180837.000,A,4244.0838,N,02318.0122,E,0.59,33.04,030619,,,A*52

$GPVTG,33.04,T,,M,0.59,N,1.09,K,A*0D

$GPGGA,180838.000,4244.0838,N,02318.0125,E,1,05,2.02,341.8,M,36.7,M,,*64

$GPGSA,A,3,14,08,32,27,22,,,,,,,,2.24,2.02,0.98*0E

$GPRMC,180838.000,A,4244.0838,N,02318.0125,E,0.63,49.17,030619,,,A*5C

$GPVTG,49.17,T,,M,0.63,N,1.17,K,A*04

$GPGGA,180839.000,4244.0841,N,02318.0127,E,1,05,2.02,342.4,M,36.7,M,,*66

$GPGSA,A,3,14,08,32,27,22,,,,,,,,2.24,2.02,0.98*0E

$GPRMC,180839.000,A,4244.0841,N,02318.0127,E,0.71,37.64,030619,,,A*5F

$GPVTG,37.64,T,,M,0.71,N,1.32,K,A*0D

$GPGGA,180840.000,4244.0843,N,02318.0130,E,1,05,2.02,342.9,M,36.7,M,,*61

$GPGSA,A,3,14,08,32,27,22,,,,,,,,2.24,2.02,0.98*0E

$GPGSV,3,1,09,08,62,221,34,32,55,093,22,14,52,126,23,22,39,253,32*7A

$GPGSV,3,2,09,01,38,302,20,27,37,174,35,49,37,206,30,03,18,246,24*7F

$GPGSV,3,3,09,28,11,316,*4E

$GPRMC,180840.000,A,4244.0843,N,02318.0130,E,0.76,42.26,030619,,,A*56

$GPVTG,42.26,T,,M,0.76,N,1.41,K,A*0A

$GPGGA,180841.000,4244.0845,N,02318.0134,E,1,05,2.02,343.5,M,36.7,M,,*6F

$GPGSA,A,3,14,08,32,27,22,,,,,,,,2.24,2.02,0.98*0E

$GPRMC,180841.000,A,4244.0845,N,02318.0134,E,0.81,45.49,030619,,,A*53

$GPVTG,45.49,T,,M,0.81,N,1.49,K,A*04

$GPGGA,180842.000,4244.0846,N,02318.0136,E,1,05,2.02,344.1,M,36.7,M,,*6E

$GPGSA,A,3,14,08,32,27,22,,,,,,,,2.24,2.02,0.98*0E

$GPRMC,180842.000,A,4244.0846,N,02318.0136,E,0.75,41.53,030619,,,A*55

$GPVTG,41.53,T,,M,0.75,N,1.38,K,A*06

$GPGGA,180843.000,4244.0846,N,02318.0135,E,1,05,2.02,344.6,M,36.7,M,,*6B

$GPGSA,A,3,14,08,32,27,22,,,,,,,,2.24,2.02,0.98*0E

$GPRMC,180843.000,A,4244.0846,N,02318.0135,E,0.68,35.57,030619,,,A*5C

$GPVTG,35.57,T,,M,0.68,N,1.26,K,A*02

$GPGGA,180844.000,4244.0849,N,02318.0138,E,1,05,2.02,345.2,M,36.7,M,,*6B

$GPGSA,A,3,14,08,32,27,22,,,,,,,,2.24,2.02,0.98*0E

$GPRMC,180844.000,A,4244.0849,N,02318.0138,E,0.76,34.48,030619,,,A*59

$GPVTG,34.48,T,,M,0.76,N,1.42,K,A*00

$GPGGA,180845.000,4244.0850,N,02318.0139,E,1,05,2.02,345.7,M,36.7,M,,*66

$GPGSA,A,3,14,08,32,27,22,,,,,,,,2.24,2.02,0.98*0E

$GPGSV,3,1,09,08,62,221,34,32,55,093,26,14,52,126,23,22,39,253,32*7E

$GPGSV,3,2,09,01,38,302,19,27,37,174,34,49,37,206,30,03,18,246,22*72

$GPGSV,3,3,09,28,11,316,*4E

$GPRMC,180845.000,A,4244.0850,N,02318.0139,E,0.71,26.28,030619,,,A*53

$GPVTG,26.28,T,,M,0.71,N,1.32,K,A*05

$GPGGA,180846.000,4244.0851,N,02318.0139,E,1,05,2.02,346.2,M,36.7,M,,*62

$GPGSA,A,3,14,08,32,27,22,,,,,,,,2.24,2.02,0.98*0E

$GPRMC,180846.000,A,4244.0851,N,02318.0139,E,0.60,30.30,030619,,,A*5F

$GPVTG,30.30,T,,M,0.60,N,1.11,K,A*0A

$GPGGA,180847.000,4244.0851,N,02318.0138,E,1,05,2.01,346.8,M,36.7,M,,*6B

$GPGSA,A,3,14,08,32,27,22,,,,,,,,2.24,2.01,0.98*0D

$GPRMC,180847.000,A,4244.0851,N,02318.0138,E,0.56,32.24,030619,,,A*5D

$GPVTG,32.24,T,,M,0.56,N,1.04,K,A*0C

$GPGGA,180848.000,4244.0852,N,02318.0141,E,1,05,2.01,347.2,M,36.7,M,,*62

$GPGSA,A,3,14,08,32,27,22,,,,,,,,2.24,2.01,0.98*0D

$GPRMC,180848.000,A,4244.0852,N,02318.0141,E,0.61,38.23,030619,,,A*56

$GPVTG,38.23,T,,M,0.61,N,1.13,K,A*03

$GPGGA,180849.000,4244.0856,N,02318.0142,E,1,05,2.01,347.7,M,36.7,M,,*61

$GPGSA,A,3,14,08,32,27,22,,,,,,,,2.24,2.01,0.98*0D

$GPRMC,180849.000,A,4244.0856,N,02318.0142,E,0.71,28.20,030619,,,A*53

$GPVTG,28.20,T,,M,0.71,N,1.32,K,A*03

$GPGGA,180850.000,4244.0859,N,02318.0143,E,1,05,2.01,348.1,M,36.7,M,,*6E

$GPGSA,A,3,14,08,32,27,22,,,,,,,,2.24,2.01,0.98*0D

$GPGSV,3,1,09,08,62,220,34,32,55,093,26,14,52,126,22,22,39,253,33*7F

$GPGSV,3,2,09,01,38,302,18,27,37,174,34,49,37,206,31,03,18,246,22*72

$GPGSV,3,3,09,28,11,316,*4E

$GPRMC,180850.000,A,4244.0859,N,02318.0143,E,0.77,26.63,030619,,,A*5A

$GPVTG,26.63,T,,M,0.77,N,1.43,K,A*0A

$GPGGA,180851.000,4244.0862,N,02318.0144,E,1,05,2.01,348.6,M,36.7,M,,*67

$GPGSA,A,3,14,08,32,27,22,,,,,,,,2.24,2.01,0.98*0D

$GPRMC,180851.000,A,4244.0862,N,02318.0144,E,0.71,25.66,030619,,,A*54

$GPVTG,25.66,T,,M,0.71,N,1.31,K,A*0F

$GPGGA,180852.000,4244.0865,N,02318.0146,E,1,05,2.01,349.0,M,36.7,M,,*66

$GPGSA,A,3,14,08,32,27,22,,,,,,,,2.24,2.01,0.98*0D

$GPRMC,180852.000,A,4244.0865,N,02318.0146,E,0.79,26.16,030619,,,A*5E

$GPVTG,26.16,T,,M,0.79,N,1.47,K,A*02

$GPGGA,180853.000,4244.0863,N,02318.0145,E,1,05,2.01,349.5,M,36.7,M,,*67

$GPGSA,A,3,14,08,32,27,22,,,,,,,,2.24,2.01,0.98*0D

$GPRMC,180853.000,A,4244.0863,N,02318.0145,E,0.57,28.80,030619,,,A*57

$GPVTG,28.80,T,,M,0.57,N,1.05,K,A*09

$GPGGA,180854.000,4244.0865,N,02318.0145,E,1,05,2.01,349.9,M,36.7,M,,*6A

$GPGSA,A,3,14,08,32,27,22,,,,,,,,2.24,2.01,0.98*0D

$GPRMC,180854.000,A,4244.0865,N,02318.0145,E,0.59,20.43,030619,,,A*5F

$GPVTG,20.43,T,,M,0.59,N,1.10,K,A*04

$GPGGA,180855.000,4244.0865,N,02318.0147,E,1,05,2.01,350.4,M,36.7,M,,*6C

$GPGSA,A,3,14,08,32,27,22,,,,,,,,2.24,2.01,0.98*0D

$GPGSV,3,1,09,08,62,220,33,32,55,093,28,14,52,126,21,22,39,253,33*75

$GPGSV,3,2,09,01,38,302,17,27,37,174,34,49,37,206,31,03,18,246,21*7E

$GPGSV,3,3,09,28,11,316,*4E

$GPRMC,180855.000,A,4244.0865,N,02318.0147,E,0.52,32.49,030619,,,A*5E

$GPVTG,32.49,T,,M,0.52,N,0.96,K,A*09

$GPGGA,180856.000,4244.0865,N,02318.0148,E,1,05,2.01,350.9,M,36.7,M,,*6D

$GPGSA,A,3,14,08,32,27,22,,,,,,,,2.24,2.01,0.98*0D

$GPRMC,180856.000,A,4244.0865,N,02318.0148,E,0.44,29.46,030619,,,A*50

$GPVTG,29.46,T,,M,0.44,N,0.82,K,A*0E

$GPGGA,180857.000,4244.0865,N,02318.0147,E,1,05,2.01,351.4,M,36.7,M,,*6F

$GPGSA,A,3,14,08,32,27,22,,,,,,,,2.24,2.01,0.98*0D

$GPRMC,180857.000,A,4244.0865,N,02318.0147,E,0.28,16.75,030619,,,A*58

$GPVTG,16.75,T,,M,0.28,N,0.52,K,A*05

$GPGGA,180858.000,4244.0865,N,02318.0148,E,1,05,2.01,351.9,M,36.7,M,,*62

$GPGSA,A,3,14,08,32,27,22,,,,,,,,2.24,2.01,0.98*0D

$GPRMC,180858.000,A,4244.0865,N,02318.0148,E,0.13,32.26,030619,,,A*50

$GPVTG,32.26,T,,M,0.13,N,0.23,K,A*0B

$GPGGA,180859.000,4244.0865,N,02318.0148,E,1,05,2.01,352.4,M,36.7,M,,*6D

$GPGSA,A,3,14,08,32,27,22,,,,,,,,2.24,2.01,0.98*0D

$GPRMC,180859.000,A,4244.0865,N,02318.0148,E,0.11,17.76,030619,,,A*51

$GPVTG,17.76,T,,M,0.11,N,0.21,K,A*09

$GPGGA,180900.000,4244.0866,N,02318.0149,E,1,05,2.01,352.8,M,36.7,M,,*6E

$GPGSA,A,3,14,08,32,27,22,,,,,,,,2.24,2.01,0.98*0D

$GPGSV,3,1,09,08,62,220,33,32,55,093,29,14,52,126,20,22,39,253,33*75

$GPGSV,3,2,09,01,38,302,17,27,37,174,34,49,37,206,31,03,18,246,20*7F

$GPGSV,3,3,09,28,11,316,*4E

$GPRMC,180900.000,A,4244.0866,N,02318.0149,E,0.10,342.63,030619,,,A*68

$GPVTG,342.63,T,,M,0.10,N,0.19,K,A*34

$GPGGA,180901.000,4244.0869,N,02318.0149,E,1,05,2.01,353.3,M,36.7,M,,*6A

$GPGSA,A,3,14,08,32,27,22,,,,,,,,2.24,2.01,0.98*0D

$GPRMC,180901.000,A,4244.0869,N,02318.0149,E,0.24,356.57,030619,,,A*63

$GPVTG,356.57,T,,M,0.24,N,0.44,K,A*39

$GPGGA,180902.000,4244.0869,N,02318.0149,E,1,05,2.31,353.7,M,36.7,M,,*6E

$GPGSA,A,3,14,08,32,27,22,,,,,,,,5.60,2.31,5.10*0C

$GPRMC,180902.000,A,4244.0869,N,02318.0149,E,0.24,352.29,030619,,,A*6D

$GPVTG,352.29,T,,M,0.24,N,0.44,K,A*34

$GPGGA,180903.000,4244.0871,N,02318.0148,E,1,05,2.31,354.1,M,36.7,M,,*66

$GPGSA,A,3,14,08,32,27,22,,,,,,,,5.59,2.31,5.09*0E

$GPRMC,180903.000,A,4244.0871,N,02318.0148,E,0.39,326.23,030619,,,A*61

$GPVTG,326.23,T,,M,0.39,N,0.73,K,A*35

$GPGGA,180904.000,4244.0872,N,02318.0148,E,1,05,2.01,354.4,M,36.7,M,,*64

$GPGSA,A,3,14,08,32,27,22,,,,,,,,2.23,2.01,0.98*0A

$GPRMC,180904.000,A,4244.0872,N,02318.0148,E,0.31,324.64,030619,,,A*6C

$GPVTG,324.64,T,,M,0.31,N,0.57,K,A*3A

$GPGGA,180905.000,4244.0873,N,02318.0149,E,1,05,2.01,354.8,M,36.7,M,,*69

$GPGSA,A,3,14,08,32,27,22,,,,,,,,2.23,2.01,0.98*0A

$GPGSV,3,1,09,08,62,220,33,32,55,093,27,14,52,126,20,22,39,253,33*7B

$GPGSV,3,2,09,01,38,302,17,27,37,174,35,49,37,206,30,03,18,246,20*7F

$GPGSV,3,3,09,28,11,316,*4E

$GPRMC,180905.000,A,4244.0873,N,02318.0149,E,0.26,340.87,030619,,,A*64

$GPVTG,340.87,T,,M,0.26,N,0.49,K,A*3C

$GPGGA,180906.000,4244.0875,N,02318.0152,E,1,05,2.01,355.1,M,36.7,M,,*6E

$GPGSA,A,3,14,08,32,27,22,,,,,,,,2.23,2.01,0.98*0A

$GPRMC,180906.000,A,4244.0875,N,02318.0152,E,0.26,21.82,030619,,,A*5A

$GPVTG,21.82,T,,M,0.26,N,0.47,K,A*03

$GPGGA,180907.000,4244.0874,N,02318.0154,E,1,05,2.01,355.4,M,36.7,M,,*6D

$GPGSA,A,3,14,08,32,27,22,,,,,,,,2.23,2.01,0.98*0A

$GPRMC,180907.000,A,4244.0874,N,02318.0154,E,0.15,32.05,030619,,,A*51

$GPVTG,32.05,T,,M,0.15,N,0.27,K,A*08

$GPGGA,180908.000,4244.0873,N,02318.0155,E,1,05,2.01,355.8,M,36.7,M,,*68

$GPGSA,A,3,14,08,32,27,22,,,,,,,,2.23,2.01,0.98*0A

$GPRMC,180908.000,A,4244.0873,N,02318.0155,E,0.06,38.55,030619,,,A*55

$GPVTG,38.55,T,,M,0.06,N,0.11,K,A*00

$GPGGA,180909.000,4244.0875,N,02318.0156,E,1,05,2.01,356.1,M,36.7,M,,*66

$GPGSA,A,3,14,08,32,27,22,,,,,,,,2.23,2.01,0.98*0A

$GPRMC,180909.000,A,4244.0875,N,02318.0156,E,0.20,11.91,030619,,,A*56

$GPVTG,11.91,T,,M,0.20,N,0.36,K,A*02

$GPGGA,180910.000,4244.0874,N,02318.0157,E,1,05,2.31,356.5,M,36.7,M,,*69

$GPGSA,A,3,14,08,32,27,22,,,,,,,,5.60,2.31,5.10*0C

$GPGSV,3,1,09,08,62,220,33,32,55,093,27,14,52,126,18,22,39,253,33*70

$GPGSV,3,2,09,01,38,302,15,27,37,174,35,49,37,206,30,03,18,246,19*77

$GPGSV,3,3,09,28,11,315,*4D

$GPRMC,180910.000,A,4244.0874,N,02318.0157,E,0.15,38.94,030619,,,A*56

$GPVTG,38.94,T,,M,0.15,N,0.28,K,A*05

$GPGGA,180911.000,4244.0875,N,02318.0159,E,1,05,2.01,356.8,M,36.7,M,,*69

$GPGSA,A,3,14,08,32,27,22,,,,,,,,2.23,2.01,0.98*0A

$GPRMC,180911.000,A,4244.0875,N,02318.0159,E,0.19,37.21,030619,,,A*55

$GPVTG,37.21,T,,M,0.19,N,0.34,K,A*05

$GPGGA,180912.000,4244.0875,N,02318.0158,E,1,05,2.00,357.2,M,36.7,M,,*61

$GPGSA,A,3,14,08,32,27,22,,,,,,,,2.23,2.00,0.98*0B

$GPRMC,180912.000,A,4244.0875,N,02318.0158,E,0.13,333.91,030619,,,A*61

$GPVTG,333.91,T,,M,0.13,N,0.25,K,A*33

$GPGGA,180913.000,4244.0877,N,02318.0160,E,1,05,2.00,357.5,M,36.7,M,,*6E

$GPGSA,A,3,14,08,32,27,22,,,,,,,,2.23,2.00,0.98*0B

$GPRMC,180913.000,A,4244.0877,N,02318.0160,E,0.22,9.28,030619,,,A*63

$GPVTG,9.28,T,,M,0.22,N,0.40,K,A*3A

$GPGGA,180914.000,4244.0879,N,02318.0162,E,1,05,2.31,357.8,M,36.7,M,,*6A

$GPGSA,A,3,14,08,32,27,22,,,,,,,,5.60,2.31,5.10*0C

$GPRMC,180914.000,A,4244.0879,N,02318.0162,E,0.27,22.28,030619,,,A*54

$GPVTG,22.28,T,,M,0.27,N,0.49,K,A*0F

$GPGGA,180915.000,4244.0879,N,02318.0165,E,1,05,2.00,358.2,M,36.7,M,,*6B

$GPGSA,A,3,14,08,32,27,22,,,,,,,,2.23,2.00,0.98*0B

$GPGSV,3,1,09,08,62,220,33,32,55,093,26,14,52,126,16,22,39,253,33*7F

$GPGSV,3,2,09,01,38,302,18,27,37,174,35,49,37,206,30,03,18,246,17*74

$GPGSV,3,3,09,28,11,315,*4D

$GPRMC,180915.000,A,4244.0879,N,02318.0165,E,0.23,40.93,030619,,,A*52

$GPVTG,40.93,T,,M,0.23,N,0.43,K,A*05

$GPGGA,180916.000,4244.0880,N,02318.0167,E,1,05,2.00,358.5,M,36.7,M,,*6B

$GPGSA,A,3,14,08,32,27,22,,,,,,,,2.23,2.00,0.98*0B

$GPRMC,180916.000,A,4244.0880,N,02318.0167,E,0.28,35.13,030619,,,A*54

$GPVTG,35.13,T,,M,0.28,N,0.53,K,A*05

$GPGGA,180917.000,4244.0882,N,02318.0168,E,1,05,2.00,358.8,M,36.7,M,,*6A

$GPGSA,A,3,14,08,32,27,22,,,,,,,,2.23,2.00,0.98*0B

$GPRMC,180917.000,A,4244.0882,N,02318.0168,E,0.35,39.88,030619,,,A*5A

$GPVTG,39.88,T,,M,0.35,N,0.65,K,A*02

$GPGGA,180918.000,4244.0884,N,02318.0168,E,1,05,2.00,359.1,M,36.7,M,,*6B

$GPGSA,A,3,14,08,32,27,22,,,,,,,,2.23,2.00,0.98*0B

$GPRMC,180918.000,A,4244.0884,N,02318.0168,E,0.49,24.19,030619,,,A*5C

$GPVTG,24.19,T,,M,0.49,N,0.92,K,A*05

$GPGGA,180919.000,4244.0885,N,02318.0170,E,1,05,2.00,359.4,M,36.7,M,,*67

$GPGSA,A,3,14,08,32,27,22,,,,,,,,2.23,2.00,0.98*0B

$GPRMC,180919.000,A,4244.0885,N,02318.0170,E,0.44,38.18,030619,,,A*54

$GPVTG,38.18,T,,M,0.44,N,0.81,K,A*06

$GPGGA,180920.000,4244.0885,N,02318.0169,E,1,05,2.00,359.7,M,36.7,M,,*66

$GPGSA,A,3,14,08,32,27,22,,,,,,,,2.23,2.00,0.98*0B

$GPGSV,3,1,09,08,62,220,33,32,55,093,27,14,52,126,19,22,39,253,32*70

$GPGSV,3,2,09,01,38,303,19,27,37,174,35,49,37,206,30,03,18,246,17*74

$GPGSV,3,3,09,28,11,315,*4D

$GPRMC,180920.000,A,4244.0885,N,02318.0169,E,0.37,31.91,030619,,,A*5A

$GPVTG,31.91,T,,M,0.37,N,0.68,K,A*0D

$GPGGA,180921.000,4244.0886,N,02318.0166,E,1,05,2.00,360.0,M,36.7,M,,*66

$GPGSA,A,3,14,08,32,27,22,,,,,,,,2.23,2.00,0.98*0B

$GPRMC,180921.000,A,4244.0886,N,02318.0166,E,0.41,7.13,030619,,,A*69

$GPVTG,7.13,T,,M,0.41,N,0.75,K,A*3F

$GPGGA,180922.000,4244.0887,N,02318.0164,E,1,05,2.31,360.3,M,36.7,M,,*67

$GPGSA,A,3,14,08,32,27,22,,,,,,,,5.60,2.31,5.10*0C

$GPRMC,180922.000,A,4244.0887,N,02318.0164,E,0.42,355.88,030619,,,A*6C

$GPVTG,355.88,T,,M,0.42,N,0.77,K,A*38

$GPGGA,180923.000,4244.0884,N,02318.0161,E,1,05,2.31,360.6,M,36.7,M,,*65

$GPGSA,A,3,14,08,32,27,22,,,,,,,,5.60,2.31,5.10*0C

$GPRMC,180923.000,A,4244.0884,N,02318.0161,E,0.24,344.67,030619,,,A*6A

$GPVTG,344.67,T,,M,0.24,N,0.45,K,A*38

$GPGGA,180924.000,4244.0883,N,02318.0161,E,1,05,2.00,361.0,M,36.7,M,,*60

$GPGSA,A,3,14,08,32,27,22,,,,,,,,2.23,2.00,0.98*0B

$GPRMC,180924.000,A,4244.0883,N,02318.0161,E,0.28,22.18,030619,,,A*5D

$GPVTG,22.18,T,,M,0.28,N,0.52,K,A*09

$GPGGA,180925.000,4244.0882,N,02318.0158,E,1,05,2.00,361.4,M,36.7,M,,*6E

$GPGSA,A,3,14,08,32,27,22,,,,,,,,2.23,2.00,0.98*0B

$GPGSV,3,1,09,08,62,220,33,32,55,093,28,14,52,126,21,22,39,253,32*74

$GPGSV,3,2,09,01,38,303,19,27,37,174,35,49,37,206,30,03,18,246,18*7B

$GPGSV,3,3,09,28,11,315,*4D

$GPRMC,180925.000,A,4244.0882,N,02318.0158,E,0.33,15.56,030619,,,A*53

$GPVTG,15.56,T,,M,0.33,N,0.60,K,A*0C

$GPGGA,180926.000,4244.0879,N,02318.0157,E,1,05,2.00,361.7,M,36.7,M,,*65

$GPGSA,A,3,14,08,32,27,22,,,,,,,,2.23,2.00,0.98*0B

$GPRMC,180926.000,A,4244.0879,N,02318.0157,E,0.28,26.68,030619,,,A*5C

$GPVTG,26.68,T,,M,0.28,N,0.51,K,A*09

$GPGGA,180927.000,4244.0876,N,02318.0155,E,1,05,2.00,362.0,M,36.7,M,,*6D

$GPGSA,A,3,14,08,32,27,22,,,,,,,,2.23,2.00,0.98*0B

$GPRMC,180927.000,A,4244.0876,N,02318.0155,E,0.22,40.72,030619,,,A*51

$GPVTG,40.72,T,,M,0.22,N,0.41,K,A*09

$GPGGA,180928.000,4244.0870,N,02318.0147,E,1,05,2.00,362.4,M,36.7,M,,*63

$GPGSA,A,3,14,08,32,27,22,,,,,,,,2.23,2.00,0.98*0B

$GPRMC,180928.000,A,4244.0870,N,02318.0147,E,0.16,306.97,030619,,,A*66

$GPVTG,306.97,T,,M,0.16,N,0.30,K,A*32

$GPGGA,180929.000,4244.0866,N,02318.0143,E,1,05,2.00,362.8,M,36.7,M,,*6D

$GPGSA,A,3,14,08,32,27,22,,,,,,,,2.22,2.00,0.98*0A

$GPRMC,180929.000,A,4244.0866,N,02318.0143,E,0.18,347.51,030619,,,A*65

$GPVTG,347.51,T,,M,0.18,N,0.33,K,A*30

$GPGGA,180930.000,4244.0859,N,02318.0139,E,1,05,2.30,363.1,M,36.7,M,,*6F

$GPGSA,A,3,14,08,32,27,22,,,,,,,,5.60,2.30,5.10*0D

$GPGSV,3,1,09,08,62,220,33,32,55,093,28,14,52,126,24,22,39,253,32*71

$GPGSV,3,2,09,01,38,303,19,27,37,174,35,49,37,206,31,03,18,246,17*75

$GPGSV,3,3,09,28,11,315,*4D

$GPRMC,180930.000,A,4244.0859,N,02318.0139,E,0.01,42.10,030619,,,A*57

$GPVTG,42.10,T,,M,0.01,N,0.02,K,A*09

$GPGGA,180931.000,4244.0853,N,02318.0135,E,1,05,2.00,363.5,M,36.7,M,,*6F

$GPGSA,A,3,14,08,32,27,22,,,,,,,,2.22,2.00,0.98*0A

$GPRMC,180931.000,A,4244.0853,N,02318.0135,E,0.11,158.90,030619,,,A*63

$GPVTG,158.90,T,,M,0.11,N,0.19,K,A*30

$GPGGA,180932.000,4244.0848,N,02318.0131,E,1,05,2.00,364.0,M,36.7,M,,*60

$GPGSA,A,3,14,08,32,27,22,,,,,,,,2.22,2.00,0.98*0A

$GPRMC,180932.000,A,4244.0848,N,02318.0131,E,0.09,172.76,030619,,,A*67

$GPVTG,172.76,T,,M,0.09,N,0.16,K,A*36

$GPGGA,180933.000,4244.0844,N,02318.0127,E,1,05,2.00,364.5,M,36.7,M,,*6F

$GPGSA,A,3,14,08,32,27,22,,,,,,,,2.22,2.00,0.98*0A

$GPRMC,180933.000,A,4244.0844,N,02318.0127,E,0.01,177.38,030619,,,A*6A

$GPVTG,177.38,T,,M,0.01,N,0.03,K,A*35

$GPGGA,180934.000,4244.0840,N,02318.0122,E,1,05,2.00,364.9,M,36.7,M,,*65

$GPGSA,A,3,14,08,32,27,22,,,,,,,,2.22,2.00,0.98*0A

$GPRMC,180934.000,A,4244.0840,N,02318.0122,E,0.07,326.35,030619,,,A*61

$GPVTG,326.35,T,,M,0.07,N,0.14,K,A*3E

$GPGGA,180935.000,4244.0835,N,02318.0118,E,1,05,1.99,365.3,M,36.7,M,,*67

$GPGSA,A,3,14,08,32,27,22,,,,,,,,2.22,1.99,0.98*09

$GPGSV,3,1,09,08,62,220,32,32,55,093,26,14,52,126,25,22,39,253,33*7E

$GPGSV,3,2,09,01,38,303,17,27,37,174,34,49,37,206,30,03,18,246,16*7A

$GPGSV,3,3,09,28,11,315,*4D

$GPRMC,180935.000,A,4244.0835,N,02318.0118,E,0.07,271.89,030619,,,A*6F

$GPVTG,271.89,T,,M,0.07,N,0.12,K,A*3C

$GPGGA,180936.000,4244.0831,N,02318.0113,E,1,05,1.99,365.7,M,36.7,M,,*6F

$GPGSA,A,3,14,08,32,27,22,,,,,,,,2.22,1.99,0.98*09

$GPRMC,180936.000,A,4244.0831,N,02318.0113,E,0.09,280.78,030619,,,A*6D

$GPVTG,280.78,T,,M,0.09,N,0.17,K,A*37

$GPGGA,180937.000,4244.0825,N,02318.0109,E,1,05,1.99,366.0,M,36.7,M,,*64

$GPGSA,A,3,14,08,32,27,22,,,,,,,,2.22,1.99,0.98*09

$GPRMC,180937.000,A,4244.0825,N,02318.0109,E,0.10,201.59,030619,,,A*60

$GPVTG,201.59,T,,M,0.10,N,0.19,K,A*3B

$GPGGA,180938.000,4244.0821,N,02318.0105,E,1,05,1.99,366.4,M,36.7,M,,*67

$GPGSA,A,3,14,08,32,27,22,,,,,,,,2.22,1.99,0.98*09

$GPRMC,180938.000,A,4244.0821,N,02318.0105,E,0.07,234.12,030619,,,A*68

$GPVTG,234.12,T,,M,0.07,N,0.12,K,A*3F

$GPGGA,180939.000,4244.0815,N,02318.0100,E,1,05,1.99,366.8,M,36.7,M,,*68

$GPGSA,A,3,14,08,32,27,22,,,,,,,,2.22,1.99,0.98*09

$GPRMC,180939.000,A,4244.0815,N,02318.0100,E,0.12,54.06,030619,,,A*5E

$GPVTG,54.06,T,,M,0.12,N,0.22,K,A*09

$GPGGA,180940.000,4244.0811,N,02318.0093,E,1,05,1.99,367.2,M,36.7,M,,*62

$GPGSA,A,3,14,08,32,27,22,,,,,,,,2.22,1.99,0.98*09

$GPGSV,3,1,09,08,62,220,31,32,55,093,27,14,52,126,26,22,40,253,34*76

$GPGSV,3,2,09,01,38,303,17,27,37,174,34,49,37,206,30,03,18,246,15*79

$GPGSV,3,3,09,28,11,315,*4D

$GPRMC,180940.000,A,4244.0811,N,02318.0093,E,0.28,358.21,030619,,,A*6C

$GPVTG,358.21,T,,M,0.28,N,0.52,K,A*3D

$GPGGA,180941.000,4244.0803,N,02318.0086,E,1,05,2.30,367.6,M,36.7,M,,*60

$GPGSA,A,3,14,08,32,27,22,,,,,,,,5.60,2.30,5.10*0D

$GPRMC,180941.000,A,4244.0803,N,02318.0086,E,0.12,3.64,030619,,,A*6F

$GPVTG,3.64,T,,M,0.12,N,0.21,K,A*3C

$GPGGA,180942.000,4244.0796,N,02318.0081,E,1,05,2.30,368.0,M,36.7,M,,*6E

$GPGSA,A,3,14,08,32,27,22,,,,,,,,5.60,2.30,5.10*0D

$GPRMC,180942.000,A,4244.0796,N,02318.0081,E,0.08,91.87,030619,,,A*55

$GPVTG,91.87,T,,M,0.08,N,0.15,K,A*06

$GPGGA,180943.000,4244.0791,N,02318.0077,E,1,05,1.99,368.5,M,36.7,M,,*64

$GPGSA,A,3,14,08,32,27,22,,,,,,,,2.22,1.99,0.98*09

$GPRMC,180943.000,A,4244.0791,N,02318.0077,E,0.21,57.06,030619,,,A*52

$GPVTG,57.06,T,,M,0.21,N,0.39,K,A*00

$GPGGA,180944.000,4244.0787,N,02318.0072,E,1,05,1.99,368.9,M,36.7,M,,*6D

$GPGSA,A,3,14,08,32,27,22,,,,,,,,2.22,1.99,0.98*09

$GPRMC,180944.000,A,4244.0787,N,02318.0072,E,0.27,47.23,030619,,,A*57

$GPVTG,47.23,T,,M,0.27,N,0.50,K,A*0F

$GPGGA,180945.000,4244.0783,N,02318.0066,E,1,05,1.99,369.4,M,36.7,M,,*61

$GPGSA,A,3,14,08,32,27,22,,,,,,,,2.22,1.99,0.98*09

$GPGSV,3,1,10,08,62,220,32,32,55,093,27,14,52,126,27,22,40,253,34*7C

$GPGSV,3,2,10,01,38,303,18,49,37,206,30,27,36,174,34,10,29,057,*79

$GPGSV,3,3,10,03,18,246,14,28,11,315,*7A

$GPRMC,180945.000,A,4244.0783,N,02318.0066,E,0.28,29.12,030619,,,A*52

$GPVTG,29.12,T,,M,0.28,N,0.52,K,A*08

$GPGGA,180946.000,4244.0778,N,02318.0062,E,1,05,1.99,369.8,M,36.7,M,,*6E

$GPGSA,A,3,14,08,32,27,22,,,,,,,,2.22,1.99,0.98*09

$GPRMC,180946.000,A,4244.0778,N,02318.0062,E,0.28,31.95,030619,,,A*57

$GPVTG,31.95,T,,M,0.28,N,0.52,K,A*0E

$GPGGA,180947.000,4244.0775,N,02318.0060,E,1,05,1.99,370.2,M,36.7,M,,*62

$GPGSA,A,3,14,08,32,27,22,,,,,,,,2.22,1.99,0.98*09

$GPRMC,180947.000,A,4244.0775,N,02318.0060,E,0.18,38.23,030619,,,A*5E

$GPVTG,38.23,T,,M,0.18,N,0.34,K,A*09

$GPGGA,180948.000,4244.0769,N,02318.0056,E,1,05,1.99,370.6,M,36.7,M,,*61

$GPGSA,A,3,14,08,32,27,22,,,,,,,,2.22,1.99,0.98*09

$GPRMC,180948.000,A,4244.0769,N,02318.0056,E,0.16,53.15,030619,,,A*5F

$GPVTG,53.15,T,,M,0.16,N,0.29,K,A*03

$GPGGA,180949.000,4244.0766,N,02318.0054,E,1,05,1.99,371.0,M,36.7,M,,*6A

$GPGSA,A,3,14,08,32,27,22,,,,,,,,2.22,1.99,0.98*09

$GPRMC,180949.000,A,4244.0766,N,02318.0054,E,0.11,39.75,030619,,,A*5E

$GPVTG,39.75,T,,M,0.11,N,0.20,K,A*07

$GPGGA,180950.000,4244.0760,N,02318.0049,E,1,05,1.99,371.4,M,36.7,M,,*6C

$GPGSA,A,3,14,08,32,27,22,,,,,,,,2.22,1.99,0.98*09

$GPGSV,3,1,10,08,62,220,33,32,55,092,27,14,52,126,27,22,40,253,34*7C

$GPGSV,3,2,10,01,38,303,18,49,37,206,30,27,36,174,34,10,29,057,*79

$GPGSV,3,3,10,03,18,246,12,28,11,315,*7C

$GPRMC,180950.000,A,4244.0760,N,02318.0049,E,0.07,135.10,030619,,,A*65

$GPVTG,135.10,T,,M,0.07,N,0.12,K,A*3F

$GPGGA,180951.000,4244.0756,N,02318.0049,E,1,05,1.99,371.8,M,36.7,M,,*64

$GPGSA,A,3,14,08,32,27,22,,,,,,,,2.22,1.99,0.98*09

$GPRMC,180951.000,A,4244.0756,N,02318.0049,E,0.23,125.79,030619,,,A*69

$GPVTG,125.79,T,,M,0.23,N,0.42,K,A*32

$GPGGA,180952.000,4244.0755,N,02318.0047,E,1,05,1.99,372.1,M,36.7,M,,*60

$GPGSA,A,3,14,08,32,27,22,,,,,,,,2.22,1.99,0.98*09

$GPRMC,180952.000,A,4244.0755,N,02318.0047,E,0.13,119.25,030619,,,A*62

$GPVTG,119.25,T,,M,0.13,N,0.24,K,A*37

$GPGGA,180953.000,4244.0755,N,02318.0048,E,1,05,1.99,372.5,M,36.7,M,,*6A

$GPGSA,A,3,14,08,32,27,22,,,,,,,,2.22,1.99,0.98*09

$GPRMC,180953.000,A,4244.0755,N,02318.0048,E,0.28,72.88,030619,,,A*5F

$GPVTG,72.88,T,,M,0.28,N,0.51,K,A*06

$GPGGA,180954.000,4244.0749,N,02318.0044,E,1,05,1.99,372.9,M,36.7,M,,*60

$GPGSA,A,3,14,08,32,27,22,,,,,,,,2.22,1.99,0.98*09

$GPRMC,180954.000,A,4244.0749,N,02318.0044,E,0.17,103.65,030619,,,A*61

$GPVTG,103.65,T,,M,0.17,N,0.31,K,A*38

$GPGGA,180955.000,4244.0748,N,02318.0043,E,1,05,1.99,373.2,M,36.7,M,,*6D

$GPGSA,A,3,14,08,32,27,22,,,,,,,,2.22,1.99,0.98*09

$GPGSV,3,1,10,08,62,220,34,32,55,092,28,14,52,126,26,22,40,253,34*75

$GPGSV,3,2,10,01,38,303,18,49,37,206,29,27,36,174,34,10,29,057,*71

$GPGSV,3,3,10,03,19,246,12,28,11,315,*7D

$GPRMC,180955.000,A,4244.0748,N,02318.0043,E,0.23,63.49,030619,,,A*58

$GPVTG,63.49,T,,M,0.23,N,0.42,K,A*02

$GPGGA,180956.000,4244.0746,N,02318.0043,E,1,05,1.99,373.6,M,36.7,M,,*64

$GPGSA,A,3,14,08,32,27,22,,,,,,,,2.21,1.99,0.98*0A

$GPRMC,180956.000,A,4244.0746,N,02318.0043,E,0.23,49.45,030619,,,A*51

$GPVTG,49.45,T,,M,0.23,N,0.43,K,A*07

$GPGGA,180957.000,4244.0741,N,02318.0039,E,1,05,1.99,374.0,M,36.7,M,,*6E

$GPGSA,A,3,14,08,32,27,22,,,,,,,,2.21,1.99,0.98*0A

$GPRMC,180957.000,A,4244.0741,N,02318.0039,E,0.11,61.08,030619,,,A*58

$GPVTG,61.08,T,,M,0.11,N,0.20,K,A*00

$GPGGA,180958.000,4244.0737,N,02318.0038,E,1,05,1.99,374.3,M,36.7,M,,*62

$GPGSA,A,3,14,08,32,27,22,,,,,,,,2.21,1.99,0.98*0A

$GPRMC,180958.000,A,4244.0737,N,02318.0038,E,0.07,166.00,030619,,,A*6E

$GPVTG,166.00,T,,M,0.07,N,0.12,K,A*38

$GPGGA,180959.000,4244.0736,N,02318.0037,E,2,05,1.98,374.8,M,36.7,M,0000,0000*64

$GPGSA,A,3,14,08,32,27,22,,,,,,,,2.21,1.98,0.98*0B

$GPRMC,180959.000,A,4244.0736,N,02318.0037,E,0.02,97.76,030619,,,D*5F

$GPVTG,97.76,T,,M,0.02,N,0.03,K,D*06

$GPGGA,181000.000,4244.0735,N,02318.0037,E,2,05,1.98,375.2,M,36.7,M,0000,0000*68

$GPGSA,A,3,14,08,32,27,22,,,,,,,,2.21,1.98,0.98*0B

$GPGSV,3,1,10,08,62,220,35,32,55,092,29,14,52,126,25,22,40,253,35*77

$GPGSV,3,2,10,01,38,303,18,49,37,206,29,27,36,174,34,10,29,057,*71

$GPGSV,3,3,10,03,19,246,,28,11,315,*7E

$GPRMC,181000.000,A,4244.0735,N,02318.0037,E,0.10,113.26,030619,,,D*63

$GPVTG,113.26,T,,M,0.10,N,0.19,K,D*36

$GPGGA,181001.000,4244.0734,N,02318.0036,E,2,05,1.98,375.6,M,36.7,M,0000,0000*6D

$GPGSA,A,3,14,08,32,27,22,,,,,,,,2.21,1.98,0.98*0B

$GPRMC,181001.000,A,4244.0734,N,02318.0036,E,0.09,100.47,030619,,,D*6F

$GPVTG,100.47,T,,M,0.09,N,0.17,K,D*35

$GPGGA,181002.000,4244.0734,N,02318.0035,E,2,05,1.98,376.0,M,36.7,M,0000,0000*68

$GPGSA,A,3,14,08,32,27,22,,,,,,,,2.21,1.98,0.98*0B

$GPRMC,181002.000,A,4244.0734,N,02318.0035,E,0.10,30.15,030619,,,D*52

$GPVTG,30.15,T,,M,0.10,N,0.18,K,D*07

$GPGGA,181003.000,4244.0732,N,02318.0033,E,2,05,1.98,376.5,M,36.7,M,0000,0000*6C

$GPGSA,A,3,14,08,32,27,22,,,,,,,,2.21,1.98,0.98*0B

$GPRMC,181003.000,A,4244.0732,N,02318.0033,E,0.08,347.95,030619,,,D*61

$GPVTG,347.95,T,,M,0.08,N,0.15,K,D*38

$GPGGA,181004.000,4244.0731,N,02318.0033,E,2,05,2.30,377.0,M,36.7,M,0000,0000*6D

$GPGSA,A,3,14,08,32,27,22,,,,,,,,5.61,2.30,5.12*0E

$GPRMC,181004.000,A,4244.0731,N,02318.0033,E,0.05,340.07,030619,,,D*64

$GPVTG,340.07,T,,M,0.05,N,0.09,K,D*34

$GPGGA,181005.000,4244.0728,N,02318.0031,E,2,05,1.98,377.4,M,36.7,M,0000,0000*63

$GPGSA,A,3,14,08,32,27,22,,,,,,,,2.21,1.98,0.98*0B

$GPGSV,3,1,10,08,62,220,35,32,55,092,29,14,52,125,25,22,40,253,35*74

$GPGSV,3,2,10,01,38,303,17,49,37,206,29,27,36,174,34,10,29,057,*7E

$GPGSV,3,3,10,03,19,246,,28,11,315,*7E

$GPRMC,181005.000,A,4244.0728,N,02318.0031,E,0.18,206.60,030619,,,D*61

$GPVTG,206.60,T,,M,0.18,N,0.34,K,D*34

$GPGGA,181006.000,4244.0726,N,02318.0030,E,2,05,1.98,377.8,M,36.7,M,0000,0000*63

$GPGSA,A,3,14,08,32,27,22,,,,,,,,2.21,1.98,0.98*0B

$GPRMC,181006.000,A,4244.0726,N,02318.0030,E,0.22,187.64,030619,,,D*6A

$GPVTG,187.64,T,,M,0.22,N,0.41,K,D*31

$GPGGA,181007.000,4244.0726,N,02318.0029,E,2,05,1.98,378.2,M,36.7,M,0000,0000*6F

$GPGSA,A,3,14,08,32,27,22,,,,,,,,2.21,1.98,0.98*0B

$GPRMC,181007.000,A,4244.0726,N,02318.0029,E,0.12,217.13,030619,,,D*6A

$GPVTG,217.13,T,,M,0.12,N,0.22,K,D*3D

$GPGGA,181008.000,4244.0725,N,02318.0028,E,2,05,1.98,378.6,M,36.7,M,0000,0000*66

$GPGSA,A,3,14,08,32,27,22,,,,,,,,2.21,1.98,0.98*0B

$GPRMC,181008.000,A,4244.0725,N,02318.0028,E,0.09,226.70,030619,,,D*6A

$GPVTG,226.70,T,,M,0.09,N,0.17,K,D*36

$GPGGA,181009.000,4244.0727,N,02318.0027,E,2,05,1.98,379.0,M,36.7,M,0000,0000*6D

$GPGSA,A,3,14,08,32,27,22,,,,,,,,2.21,1.98,0.98*0B

$GPRMC,181009.000,A,4244.0727,N,02318.0027,E,0.18,335.65,030619,,,D*61

$GPVTG,335.65,T,,M,0.18,N,0.34,K,D*30

$GPGGA,181010.000,4244.0726,N,02318.0027,E,2,05,1.98,379.4,M,36.7,M,0000,0000*60

$GPGSA,A,3,14,08,32,27,22,,,,,,,,2.21,1.98,0.98*0B

$GPGSV,3,1,10,08,62,220,35,32,55,092,29,14,52,125,25,22,40,253,35*74

$GPGSV,3,2,10,01,38,303,17,49,37,206,29,27,36,174,34,10,29,057,*7E

$GPGSV,3,3,10,03,19,246,,28,11,315,*7E

$GPRMC,181010.000,A,4244.0726,N,02318.0027,E,0.15,358.64,030619,,,D*6F

$GPVTG,358.64,T,,M,0.15,N,0.29,K,D*3B

$GPGGA,181011.000,4244.0725,N,02318.0026,E,2,05,2.29,379.8,M,36.7,M,0000,0000*66

$GPGSA,A,3,14,08,32,27,22,,,,,,,,5.60,2.29,5.11*04

$GPRMC,181011.000,A,4244.0725,N,02318.0026,E,0.13,315.83,030619,,,D*6A

$GPVTG,315.83,T,,M,0.13,N,0.25,K,D*31

$GPGGA,181012.000,4244.0723,N,02318.0026,E,2,05,1.98,380.3,M,36.7,M,0000,0000*67

$GPGSA,A,3,14,08,32,27,22,,,,,,,,2.21,1.98,0.98*0B

$GPRMC,181012.000,A,4244.0723,N,02318.0026,E,0.02,232.69,030619,,,D*6F

$GPVTG,232.69,T,,M,0.02,N,0.04,K,D*32

$GPGGA,181013.000,4244.0724,N,02318.0028,E,2,05,1.98,380.6,M,36.7,M,0000,0000*6A

$GPGSA,A,3,14,08,32,27,22,,,,,,,,2.21,1.98,0.98*0B

$GPRMC,181013.000,A,4244.0724,N,02318.0028,E,0.05,65.53,030619,,,D*59

$GPVTG,65.53,T,,M,0.05,N,0.09,K,D*01

$GPGGA,181014.000,4244.0723,N,02318.0028,E,2,05,1.98,381.0,M,36.7,M,0000,0000*6D

$GPGSA,A,3,14,08,32,27,22,,,,,,,,2.21,1.98,0.98*0B

$GPRMC,181014.000,A,4244.0723,N,02318.0028,E,0.04,205.59,030619,,,D*66

$GPVTG,205.59,T,,M,0.04,N,0.08,K,D*3F

$GPGGA,181015.000,4244.0724,N,02318.0030,E,2,05,1.98,381.4,M,36.7,M,0000,0000*66

$GPGSA,A,3,14,08,32,27,22,,,,,,,,2.21,1.98,0.98*0B

$GPGSV,3,1,11,08,62,220,35,32,55,092,29,14,52,125,25,11,51,303,*77

$GPGSV,3,2,11,22,40,253,35,01,38,303,14,49,37,206,28,27,36,174,34*73

$GPGSV,3,3,11,10,29,057,,03,19,246,,28,11,315,*47

$GPRMC,181015.000,A,4244.0724,N,02318.0030,E,0.08,40.65,030619,,,D*59

$GPVTG,40.65,T,,M,0.08,N,0.14,K,D*02

$GPGGA,181016.000,4244.0725,N,02318.0031,E,2,05,1.98,381.8,M,36.7,M,0000,0000*69

$GPGSA,A,3,14,08,32,27,22,,,,,,,,2.21,1.98,0.98*0B

$GPRMC,181016.000,A,4244.0725,N,02318.0031,E,0.11,20.47,030619,,,D*54

$GPVTG,20.47,T,,M,0.11,N,0.20,K,D*0B

$GPGGA,181017.000,4244.0723,N,02318.0029,E,2,05,1.98,382.3,M,36.7,M,0000,0000*6F

$GPGSA,A,3,14,08,32,27,22,,,,,,,,2.21,1.98,0.98*0B

$GPRMC,181017.000,A,4244.0723,N,02318.0029,E,0.10,238.60,030619,,,D*65

$GPVTG,238.60,T,,M,0.10,N,0.18,K,D*3F

$GPGGA,181018.000,4244.0724,N,02318.0031,E,2,05,1.98,382.7,M,36.7,M,0000,0000*6A

$GPGSA,A,3,14,08,32,27,22,,,,,,,,2.21,1.98,0.98*0B

$GPRMC,181018.000,A,4244.0724,N,02318.0031,E,0.04,298.39,030619,,,D*67

$GPVTG,298.39,T,,M,0.04,N,0.08,K,D*3D

$GPGGA,181019.000,4244.0726,N,02318.0033,E,2,05,1.98,383.0,M,36.7,M,0000,0000*6D

$GPGSA,A,3,14,08,32,27,22,,,,,,,,2.21,1.98,0.98*0B

$GPRMC,181019.000,A,4244.0726,N,02318.0033,E,0.09,32.69,030619,,,D*5C

$GPVTG,32.69,T,,M,0.09,N,0.17,K,D*09

$GPGGA,181020.000,4244.0727,N,02318.0035,E,2,05,1.98,383.5,M,36.7,M,0000,0000*65

$GPGSA,A,3,14,08,32,27,22,,,,,,,,2.21,1.98,0.98*0B

$GPGSV,3,1,11,08,62,220,34,32,55,092,28,14,52,125,25,11,51,303,*77

$GPGSV,3,2,11,22,40,253,35,01,38,303,13,49,37,206,28,27,36,174,35*75

$GPGSV,3,3,11,10,29,057,,03,19,246,16,28,11,315,*40

$GPRMC,181020.000,A,4244.0727,N,02318.0035,E,0.17,30.13,030619,,,D*51

$GPVTG,30.13,T,,M,0.17,N,0.32,K,D*0E

$GPGGA,181021.000,4244.0727,N,02318.0036,E,2,05,1.98,383.9,M,36.7,M,0000,0000*6B

$GPGSA,A,3,14,08,32,27,22,,,,,,,,2.21,1.98,0.98*0B

$GPRMC,181021.000,A,4244.0727,N,02318.0036,E,0.17,43.43,030619,,,D*52

$GPVTG,43.43,T,,M,0.17,N,0.32,K,D*0F

$GPGGA,181022.000,4244.0727,N,02318.0037,E,2,05,1.98,384.3,M,36.7,M,0000,0000*64

$GPGSA,A,3,14,08,32,27,22,,,,,,,,2.21,1.98,0.98*0B

$GPRMC,181022.000,A,4244.0727,N,02318.0037,E,0.12,63.41,030619,,,D*55

$GPVTG,63.41,T,,M,0.12,N,0.23,K,D*0A

$GPGGA,181023.000,4244.0729,N,02318.0037,E,2,05,1.97,384.7,M,36.7,M,0000,0000*60

$GPGSA,A,3,14,08,32,27,22,,,,,,,,2.20,1.97,0.98*05

$GPRMC,181023.000,A,4244.0729,N,02318.0037,E,0.23,11.64,030619,,,D*5A

$GPVTG,11.64,T,,M,0.23,N,0.43,K,D*0C

$GPGGA,181024.000,4244.0728,N,02318.0036,E,2,05,2.29,385.1,M,36.7,M,0000,0000*66

$GPGSA,A,3,14,08,32,27,22,,,,,,,,5.61,2.29,5.12*06

$GPRMC,181024.000,A,4244.0728,N,02318.0036,E,0.17,348.99,030619,,,D*67

$GPVTG,348.99,T,,M,0.17,N,0.32,K,D*30

$GPGGA,181025.000,4244.0729,N,02318.0037,E,2,05,2.29,385.6,M,36.7,M,0000,0000*60

$GPGSA,A,3,14,08,32,27,22,,,,,,,,5.60,2.29,5.11*04

$GPGSV,3,1,11,08,62,220,34,32,55,092,26,14,52,125,24,11,51,303,*78

$GPGSV,3,2,11,22,40,253,35,01,38,303,15,49,37,206,29,27,36,174,35*72

$GPGSV,3,3,11,10,29,057,,03,19,246,15,28,11,315,*43

$GPRMC,181025.000,A,4244.0729,N,02318.0037,E,0.19,13.64,030619,,,D*57

$GPVTG,13.64,T,,M,0.19,N,0.35,K,D*06

$GPGGA,181026.000,4244.0730,N,02318.0038,E,2,05,2.29,386.0,M,36.7,M,0000,0000*61

$GPGSA,A,3,14,08,32,27,22,,,,,,,,5.61,2.29,5.12*06

$GPRMC,181026.000,A,4244.0730,N,02318.0038,E,0.20,9.42,030619,,,D*66

$GPVTG,9.42,T,,M,0.20,N,0.37,K,D*31

$GPGGA,181027.000,4244.0731,N,02318.0038,E,2,05,2.29,386.4,M,36.7,M,0000,0000*65

$GPGSA,A,3,14,08,32,27,22,,,,,,,,5.60,2.29,5.11*04

$GPRMC,181027.000,A,4244.0731,N,02318.0038,E,0.26,14.38,030619,,,D*51

$GPVTG,14.38,T,,M,0.26,N,0.48,K,D*0E

$GPGGA,181028.000,4244.0731,N,02318.0038,E,2,05,2.29,386.8,M,36.7,M,0000,0000*66

$GPGSA,A,3,14,08,32,27,22,,,,,,,,5.61,2.29,5.12*06

$GPRMC,181028.000,A,4244.0731,N,02318.0038,E,0.27,10.97,030619,,,D*5E

$GPVTG,10.97,T,,M,0.27,N,0.50,K,D*07

$GPGGA,181029.000,4244.0730,N,02318.0037,E,2,05,2.29,387.2,M,36.7,M,0000,0000*62

$GPGSA,A,3,14,08,32,27,22,,,,,,,,5.60,2.29,5.11*04

$GPRMC,181029.000,A,4244.0730,N,02318.0037,E,0.20,356.47,030619,,,D*6A

$GPVTG,356.47,T,,M,0.20,N,0.37,K,D*3D

$GPGGA,181030.000,4244.0729,N,02318.0037,E,2,05,2.29,387.6,M,36.7,M,0000,0000*66

$GPGSA,A,3,14,08,32,27,22,,,,,,,,5.61,2.29,5.12*06

$GPGSV,3,1,11,08,62,220,34,32,55,092,26,14,52,125,24,11,51,303,*78

$GPGSV,3,2,11,22,40,253,34,01,38,303,16,49,37,206,29,27,36,174,35*70

$GPGSV,3,3,11,10,29,057,,03,19,246,15,28,11,315,*43

$GPRMC,181030.000,A,4244.0729,N,02318.0037,E,0.16,8.15,030619,,,D*60

$GPVTG,8.15,T,,M,0.16,N,0.30,K,D*30

$GPGGA,181031.000,4244.0728,N,02318.0038,E,2,05,2.29,387.9,M,36.7,M,0000,0000*66

$GPGSA,A,3,14,08,32,27,22,,,,,,,,5.61,2.29,5.12*06

$GPRMC,181031.000,A,4244.0728,N,02318.0038,E,0.19,14.14,030619,,,D*5C

$GPVTG,14.14,T,,M,0.19,N,0.36,K,D*05

$GPGGA,181032.000,4244.0728,N,02318.0038,E,2,05,2.29,388.4,M,36.7,M,0000,0000*67

$GPGSA,A,3,14,08,32,27,22,,,,,,,,5.60,2.29,5.11*04

$GPRMC,181032.000,A,4244.0728,N,02318.0038,E,0.17,18.34,030619,,,D*5F

$GPVTG,18.34,T,,M,0.17,N,0.32,K,D*01

$GPGGA,181033.000,4244.0729,N,02318.0039,E,2,05,1.97,388.7,M,36.7,M,0000,0000*63

$GPGSA,A,3,14,08,32,27,22,,,,,,,,2.20,1.97,0.98*05

$GPRMC,181033.000,A,4244.0729,N,02318.0039,E,0.25,28.99,030619,,,D*5B

$GPVTG,28.99,T,,M,0.25,N,0.47,K,D*06

$GPGGA,181034.000,4244.0729,N,02318.0040,E,2,05,1.97,389.1,M,36.7,M,0000,0000*6D

$GPGSA,A,3,14,08,32,27,22,,,,,,,,2.20,1.97,0.98*05

$GPRMC,181034.000,A,4244.0729,N,02318.0040,E,0.25,24.04,030619,,,D*5A

$GPVTG,24.04,T,,M,0.25,N,0.47,K,D*0E

$GPGGA,181035.000,4244.0728,N,02318.0040,E,2,05,1.97,389.5,M,36.7,M,0000,0000*69

$GPGSA,A,3,14,08,32,27,22,,,,,,,,2.20,1.97,0.98*05

$GPGSV,3,1,11,08,62,219,33,32,55,092,26,14,52,125,24,11,51,303,*75

$GPGSV,3,2,11,22,40,253,34,01,38,303,17,49,37,206,29,27,36,174,35*71

$GPGSV,3,3,11,10,29,057,,03,19,246,16,28,11,315,*40

$GPRMC,181035.000,A,4244.0728,N,02318.0040,E,0.23,17.38,030619,,,D*53

$GPVTG,17.38,T,,M,0.23,N,0.42,K,D*02

$GPGGA,181036.000,4244.0729,N,02318.0041,E,2,05,1.97,389.9,M,36.7,M,0000,0000*66

$GPGSA,A,3,14,08,32,27,22,,,,,,,,2.20,1.97,0.98*05

$GPRMC,181036.000,A,4244.0729,N,02318.0041,E,0.27,12.12,030619,,,D*59

$GPVTG,12.12,T,,M,0.27,N,0.51,K,D*09

$GPGGA,181037.000,4244.0729,N,02318.0043,E,2,05,2.29,390.2,M,36.7,M,0000,0000*60

$GPGSA,A,3,14,08,32,27,22,,,,,,,,5.60,2.29,5.11*04

$GPRMC,181037.000,A,4244.0729,N,02318.0043,E,0.26,27.15,030619,,,D*5A

$GPVTG,27.15,T,,M,0.26,N,0.48,K,D*01

$GPGGA,181038.000,4244.0728,N,02318.0044,E,2,05,1.97,390.6,M,36.7,M,0000,0000*6B

$GPGSA,A,3,14,08,32,27,22,,,,,,,,2.20,1.97,0.98*05

$GPRMC,181038.000,A,4244.0728,N,02318.0044,E,0.30,46.42,030619,,,D*51

$GPVTG,46.42,T,,M,0.30,N,0.55,K,D*0F

$GPGGA,181039.000,4244.0729,N,02318.0044,E,2,05,1.97,391.0,M,36.7,M,0000,0000*6C

$GPGSA,A,3,14,08,32,27,22,,,,,,,,2.20,1.97,0.98*05

$GPRMC,181039.000,A,4244.0729,N,02318.0044,E,0.29,34.60,030619,,,D*5C

$GPVTG,34.60,T,,M,0.29,N,0.53,K,D*04

$GPGGA,181040.000,4244.0727,N,02318.0042,E,2,05,1.97,391.4,M,36.7,M,0000,0000*6E

$GPGSA,A,3,14,08,32,27,22,,,,,,,,2.20,1.97,0.98*05

$GPGSV,3,1,11,08,62,219,33,32,55,092,25,14,52,125,23,11,51,303,*71

$GPGSV,3,2,11,22,40,253,34,01,38,303,14,49,37,206,29,27,36,174,35*72

$GPGSV,3,3,11,10,29,057,,03,19,246,16,28,11,315,*40

$GPRMC,181040.000,A,4244.0727,N,02318.0042,E,0.17,28.05,030619,,,D*59

$GPVTG,28.05,T,,M,0.17,N,0.31,K,D*03

$GPGGA,181041.000,4244.0728,N,02318.0044,E,2,05,1.97,391.7,M,36.7,M,0000,0000*65

$GPGSA,A,3,14,08,32,27,22,,,,,,,,2.20,1.97,0.98*05

$GPRMC,181041.000,A,4244.0728,N,02318.0044,E,0.27,24.87,030619,,,D*54

$GPVTG,24.87,T,,M,0.27,N,0.51,K,D*00

$GPGGA,181042.000,4244.0728,N,02318.0044,E,2,05,1.97,391.8,M,36.7,M,0000,0000*69

$GPGSA,A,3,14,08,32,27,22,,,,,,,,2.20,1.97,0.98*05

$GPRMC,181042.000,A,4244.0728,N,02318.0044,E,0.35,18.49,030619,,,D*59

$GPVTG,18.49,T,,M,0.35,N,0.65,K,D*09

$GPGGA,181043.000,4244.0729,N,02318.0045,E,2,05,1.97,391.8,M,36.7,M,0000,0000*68

$GPGSA,A,3,14,08,32,27,22,,,,,,,,2.20,1.97,0.98*05

$GPRMC,181043.000,A,4244.0729,N,02318.0045,E,0.43,20.08,030619,,,D*57

$GPVTG,20.08,T,,M,0.43,N,0.79,K,D*0B

$GPGGA,181044.000,4244.0731,N,02318.0045,E,2,05,1.97,391.8,M,36.7,M,0000,0000*66

$GPGSA,A,3,14,08,32,27,22,,,,,,,,2.20,1.97,0.98*05

$GPRMC,181044.000,A,4244.0731,N,02318.0045,E,0.47,35.04,030619,,,D*55

$GPVTG,35.04,T,,M,0.47,N,0.86,K,D*07

$GPGGA,181045.000,4244.0732,N,02318.0046,E,2,05,1.97,391.8,M,36.7,M,0000,0000*67

$GPGSA,A,3,14,08,32,27,22,,,,,,,,2.20,1.97,0.98*05

$GPGSV,3,1,11,08,62,219,33,32,55,092,21,14,53,125,23,11,51,303,*74

$GPGSV,3,2,11,22,40,253,33,01,38,303,14,49,37,206,29,27,36,174,34*74

$GPGSV,3,3,11,10,29,057,,03,19,246,17,28,11,315,*41

$GPRMC,181045.000,A,4244.0732,N,02318.0046,E,0.50,45.09,030619,,,D*58

$GPVTG,45.09,T,,M,0.50,N,0.94,K,D*08

$GPGGA,181046.000,4244.0732,N,02318.0048,E,2,05,1.97,391.8,M,36.7,M,0000,0000*6A

$GPGSA,A,3,14,08,32,27,22,,,,,,,,2.20,1.97,0.98*05

$GPRMC,181046.000,A,4244.0732,N,02318.0048,E,0.46,37.18,030619,,,D*57

$GPVTG,37.18,T,,M,0.46,N,0.86,K,D*09

$GPGGA,181047.000,4244.0733,N,02318.0049,E,2,05,1.96,391.8,M,36.7,M,0000,0000*6A

$GPGSA,A,3,14,08,32,27,22,,,,,,,,2.20,1.96,0.98*04

$GPRMC,181047.000,A,4244.0733,N,02318.0049,E,0.46,19.71,030619,,,D*55

$GPVTG,19.71,T,,M,0.46,N,0.85,K,D*09

$GPGGA,181048.000,4244.0735,N,02318.0049,E,2,05,1.96,391.8,M,36.7,M,0000,0000*63

$GPGSA,A,3,14,08,32,27,22,,,,,,,,2.20,1.96,0.98*04

$GPRMC,181048.000,A,4244.0735,N,02318.0049,E,0.40,18.11,030619,,,D*5D

$GPVTG,18.11,T,,M,0.40,N,0.74,K,D*06

$GPGGA,181049.000,4244.0736,N,02318.0050,E,2,05,1.96,391.8,M,36.7,M,0000,0000*69

$GPGSA,A,3,14,08,32,27,22,,,,,,,,2.20,1.96,0.98*04

$GPRMC,181049.000,A,4244.0736,N,02318.0050,E,0.44,15.03,030619,,,D*5D

$GPVTG,15.03,T,,M,0.44,N,0.81,K,D*06

$GPGGA,181050.000,4244.0737,N,02318.0050,E,2,05,1.96,391.9,M,36.7,M,0000,0000*61

$GPGSA,A,3,14,08,32,27,22,,,,,,,,2.20,1.96,0.98*04

$GPGSV,3,1,11,08,62,219,34,32,55,092,21,14,53,125,21,11,51,303,*71

$GPGSV,3,2,11,22,40,254,32,01,38,303,15,49,37,206,28,27,36,174,34*72

$GPGSV,3,3,11,10,29,057,,03,19,246,18,28,11,315,*4E

$GPRMC,181050.000,A,4244.0737,N,02318.0050,E,0.42,24.34,030619,,,D*54

$GPVTG,24.34,T,,M,0.42,N,0.77,K,D*0F

$GPGGA,181051.000,4244.0738,N,02318.0051,E,2,05,1.96,391.9,M,36.7,M,0000,0000*6E

$GPGSA,A,3,14,08,32,27,22,,,,,,,,2.20,1.96,0.98*04

$GPRMC,181051.000,A,4244.0738,N,02318.0051,E,0.45,19.65,030619,,,D*56

$GPVTG,19.65,T,,M,0.45,N,0.83,K,D*09

$GPGGA,181052.000,4244.0739,N,02318.0051,E,2,05,1.96,391.9,M,36.7,M,0000,0000*6C

$GPGSA,A,3,14,08,32,27,22,,,,,,,,2.19,1.96,0.98*0E

$GPRMC,181052.000,A,4244.0739,N,02318.0051,E,0.41,26.12,030619,,,D*5C

$GPVTG,26.12,T,,M,0.41,N,0.76,K,D*0B

$GPGGA,181053.000,4244.0740,N,02318.0052,E,2,05,1.96,391.9,M,36.7,M,0000,0000*60

$GPGSA,A,3,14,08,32,27,22,,,,,,,,2.19,1.96,0.98*0E

$GPRMC,181053.000,A,4244.0740,N,02318.0052,E,0.52,13.92,030619,,,D*5C

$GPVTG,13.92,T,,M,0.52,N,0.96,K,D*09

$GPGGA,181054.000,4244.0741,N,02318.0053,E,2,05,2.28,391.9,M,36.7,M,0000,0000*61

$GPGSA,A,3,14,08,32,27,22,,,,,,,,5.61,2.28,5.12*07

$GPRMC,181054.000,A,4244.0741,N,02318.0053,E,0.48,12.98,030619,,,D*5B

$GPVTG,12.98,T,,M,0.48,N,0.90,K,D*0F

$GPGGA,181055.000,4244.0743,N,02318.0053,E,2,05,2.28,391.9,M,36.7,M,0000,0000*62

$GPGSA,A,3,14,08,32,27,22,,,,,,,,5.60,2.28,5.12*06

$GPGSV,3,1,11,08,62,219,34,32,55,092,24,14,53,125,18,11,51,303,*7E

$GPGSV,3,2,11,22,40,254,32,01,38,303,15,49,37,206,28,27,36,174,34*72

$GPGSV,3,3,11,10,29,057,,03,19,246,18,28,11,315,*4E

$GPRMC,181055.000,A,4244.0743,N,02318.0053,E,0.52,21.65,030619,,,D*51

$GPVTG,21.65,T,,M,0.52,N,0.95,K,D*03

$GPGGA,181056.000,4244.0744,N,02318.0054,E,2,05,1.96,391.9,M,36.7,M,0000,0000*67

$GPGSA,A,3,14,08,32,27,22,,,,,,,,2.19,1.96,0.98*0E

$GPRMC,181056.000,A,4244.0744,N,02318.0054,E,0.58,21.24,030619,,,D*5D

$GPVTG,21.24,T,,M,0.58,N,1.07,K,D*06

$GPGGA,181057.000,4244.0745,N,02318.0054,E,2,05,1.96,391.9,M,36.7,M,0000,0000*67

$GPGSA,A,3,14,08,32,27,22,,,,,,,,2.19,1.96,0.98*0E

$GPRMC,181057.000,A,4244.0745,N,02318.0054,E,0.48,40.44,030619,,,D*5D

$GPVTG,40.44,T,,M,0.48,N,0.89,K,D*01

$GPGGA,181058.000,4244.0746,N,02318.0056,E,2,05,1.96,391.9,M,36.7,M,0000,0000*69

$GPGSA,A,3,14,08,32,27,22,,,,,,,,2.19,1.96,0.98*0E

$GPRMC,181058.000,A,4244.0746,N,02318.0056,E,0.41,48.19,030619,,,D*5A

$GPVTG,48.19,T,,M,0.41,N,0.76,K,D*08

$GPGGA,181059.000,4244.0747,N,02318.0057,E,2,05,1.96,391.9,M,36.7,M,0000,0000*68

$GPGSA,A,3,14,08,32,27,22,,,,,,,,2.19,1.96,0.98*0E

$GPRMC,181059.000,A,4244.0747,N,02318.0057,E,0.36,60.96,030619,,,D*56

$GPVTG,60.96,T,,M,0.36,N,0.67,K,D*05

$GPGGA,181100.000,4244.0747,N,02318.0058,E,2,05,1.96,392.0,M,36.7,M,0000,0000*60

$GPGSA,A,3,14,08,32,27,22,,,,,,,,2.19,1.96,0.98*0E

$GPGSV,3,1,11,08,62,219,33,32,55,091,21,14,53,125,17,11,51,303,*70

$GPGSV,3,2,11,22,40,254,31,01,38,303,17,49,37,206,28,27,36,174,34*73

$GPGSV,3,3,11,10,29,057,19,03,19,246,15,28,12,315,*48

$GPRMC,181100.000,A,4244.0747,N,02318.0058,E,0.26,33.03,030619,,,D*5F

$GPVTG,33.03,T,,M,0.26,N,0.48,K,D*03

$GPGGA,181101.000,4244.0748,N,02318.0058,E,2,05,1.96,392.0,M,36.7,M,0000,0000*6E

$GPGSA,A,3,14,08,32,27,22,,,,,,,,2.19,1.96,0.98*0E

$GPRMC,181101.000,A,4244.0748,N,02318.0058,E,0.08,16.53,030619,,,D*5F

$GPVTG,16.53,T,,M,0.08,N,0.14,K,D*04

$GPGGA,181102.000,4244.0748,N,02318.0058,E,2,05,1.96,392.0,M,36.7,M,0000,0000*6D

$GPGSA,A,3,14,08,32,27,22,,,,,,,,2.19,1.96,0.98*0E

$GPRMC,181102.000,A,4244.0748,N,02318.0058,E,0.07,16.90,030619,,,D*5C

$GPVTG,16.90,T,,M,0.07,N,0.14,K,D*04

$GPGGA,181103.000,4244.0748,N,02318.0058,E,2,05,1.96,392.0,M,36.7,M,0000,0000*6C

$GPGSA,A,3,14,08,32,27,22,,,,,,,,2.19,1.96,0.98*0E

$GPRMC,181103.000,A,4244.0748,N,02318.0058,E,0.27,320.61,030619,,,D*67

$GPVTG,320.61,T,,M,0.27,N,0.50,K,D*3E

$GPGGA,181104.000,4244.0749,N,02318.0057,E,2,05,1.96,392.0,M,36.7,M,0000,0000*65

$GPGSA,A,3,14,08,32,27,22,,,,,,,,2.19,1.96,0.98*0E

$GPRMC,181104.000,A,4244.0749,N,02318.0057,E,0.38,321.18,030619,,,D*6F

$GPVTG,321.18,T,,M,0.38,N,0.70,K,D*3D

$GPGGA,181105.000,4244.0749,N,02318.0056,E,2,05,1.96,392.0,M,36.7,M,0000,0000*65

$GPGSA,A,3,14,08,32,27,22,,,,,,,,2.19,1.96,0.98*0E

$GPGSV,3,1,11,08,62,219,34,32,55,091,23,14,53,125,16,11,51,303,*74

$GPGSV,3,2,11,22,40,254,30,01,39,303,17,49,37,206,29,27,36,174,34*72

$GPGSV,3,3,11,10,29,057,17,03,19,246,14,28,12,315,*47

$GPRMC,181105.000,A,4244.0749,N,02318.0056,E,0.36,330.74,030619,,,D*6B

$GPVTG,330.74,T,,M,0.36,N,0.67,K,D*3F

$GPGGA,181106.000,4244.0750,N,02318.0055,E,2,05,1.96,392.0,M,36.7,M,0000,0000*6D

$GPGSA,A,3,14,08,32,27,22,,,,,,,,2.19,1.96,0.98*0E

$GPRMC,181106.000,A,4244.0750,N,02318.0055,E,0.30,359.01,030619,,,D*68

$GPVTG,359.01,T,,M,0.30,N,0.55,K,D*35

$GPGGA,181107.000,4244.0751,N,02318.0055,E,2,05,2.28,392.0,M,36.7,M,0000,0000*6B

$GPGSA,A,3,14,08,32,27,22,,,,,,,,5.61,2.28,5.12*07

$GPRMC,181107.000,A,4244.0751,N,02318.0055,E,0.27,21.35,030619,,,D*55

$GPVTG,21.35,T,,M,0.27,N,0.50,K,D*0D

$GPGGA,181108.000,4244.0752,N,02318.0056,E,2,05,1.96,392.0,M,36.7,M,0000,0000*62

$GPGSA,A,3,14,08,32,27,22,,,,,,,,2.19,1.96,0.98*0E

$GPRMC,181108.000,A,4244.0752,N,02318.0056,E,0.29,58.79,030619,,,D*52

$GPVTG,58.79,T,,M,0.29,N,0.54,K,D*01

$GPGGA,181109.000,4244.0752,N,02318.0057,E,2,05,1.96,392.0,M,36.7,M,0000,0000*62

$GPGSA,A,3,14,08,32,27,22,,,,,,,,2.19,1.96,0.98*0E

$GPRMC,181109.000,A,4244.0752,N,02318.0057,E,0.30,58.33,030619,,,D*54

$GPVTG,58.33,T,,M,0.30,N,0.56,K,D*05

$GPGGA,181110.000,4244.0753,N,02318.0058,E,2,05,1.96,392.1,M,36.7,M,0000,0000*65

$GPGSA,A,3,14,08,32,27,22,,,,,,,,2.19,1.96,0.98*0E

$GPGSV,3,1,11,08,62,219,34,32,55,091,24,14,53,125,19,11,51,303,*7C

$GPGSV,3,2,11,22,40,254,30,01,39,303,16,49,37,206,30,27,36,174,34*7B

$GPGSV,3,3,11,10,29,057,17,03,19,247,14,28,12,315,*46

$GPRMC,181110.000,A,4244.0753,N,02318.0058,E,0.43,9.15,030619,,,D*66

$GPVTG,9.15,T,,M,0.43,N,0.79,K,D*3C

$GPGGA,181111.000,4244.0754,N,02318.0058,E,2,05,2.28,392.1,M,36.7,M,0000,0000*65

$GPGSA,A,3,14,08,32,27,22,,,,,,,,5.61,2.28,5.13*06

$GPRMC,181111.000,A,4244.0754,N,02318.0058,E,0.41,21.22,030619,,,D*5C

$GPVTG,21.22,T,,M,0.41,N,0.75,K,D*0C

$GPGGA,181112.000,4244.0755,N,02318.0058,E,2,05,1.96,392.1,M,36.7,M,0000,0000*61

$GPGSA,A,3,14,08,32,27,22,,,,,,,,2.19,1.96,0.98*0E

$GPRMC,181112.000,A,4244.0755,N,02318.0058,E,0.37,20.91,030619,,,D*56

$GPVTG,20.91,T,,M,0.37,N,0.68,K,D*08

$GPGGA,181113.000,4244.0756,N,02318.0059,E,2,05,1.95,392.1,M,36.7,M,0000,0000*61

$GPGSA,A,3,14,08,32,27,22,,,,,,,,2.19,1.95,0.98*0D

$GPRMC,181113.000,A,4244.0756,N,02318.0059,E,0.33,13.69,030619,,,D*56

$GPVTG,13.69,T,,M,0.33,N,0.62,K,D*01

$GPGGA,181114.000,4244.0757,N,02318.0059,E,2,05,2.28,392.1,M,36.7,M,0000,0000*62

$GPGSA,A,3,14,08,32,27,22,,,,,,,,5.61,2.28,5.12*07

$GPRMC,181114.000,A,4244.0757,N,02318.0059,E,0.25,357.33,030619,,,D*6B

$GPVTG,357.33,T,,M,0.25,N,0.46,K,D*3C

$GPGGA,181115.000,4244.0757,N,02318.0059,E,2,05,2.28,392.1,M,36.7,M,0000,0000*63

$GPGSA,A,3,14,08,32,27,22,,,,,,,,5.61,2.28,5.12*07

$GPGSV,3,1,11,08,61,219,33,32,55,091,26,14,53,125,18,11,51,303,*7B

$GPGSV,3,2,11,22,40,254,29,01,39,303,17,49,37,206,30,27,36,174,34*72

$GPGSV,3,3,11,10,28,057,17,03,19,247,15,28,12,315,*46

$GPRMC,181115.000,A,4244.0757,N,02318.0059,E,0.28,9.66,030619,,,D*6F

$GPVTG,9.66,T,,M,0.28,N,0.53,K,D*3D

$GPGGA,181116.000,4244.0758,N,02318.0059,E,2,05,2.28,392.1,M,36.7,M,0000,0000*6F

$GPGSA,A,3,14,08,32,27,22,,,,,,,,5.61,2.28,5.12*07

$GPRMC,181116.000,A,4244.0758,N,02318.0059,E,0.35,354.37,030619,,,D*60

$GPVTG,354.37,T,,M,0.35,N,0.64,K,D*3A

$GPGGA,181117.000,4244.0759,N,02318.0059,E,2,05,2.28,392.1,M,36.7,M,0000,0000*6F

$GPGSA,A,3,14,08,32,27,22,,,,,,,,5.61,2.28,5.12*07

$GPRMC,181117.000,A,4244.0759,N,02318.0059,E,0.26,351.01,030619,,,D*62

$GPVTG,351.01,T,,M,0.26,N,0.48,K,D*36

$GPGGA,181118.000,4244.0760,N,02318.0059,E,2,05,2.28,392.1,M,36.7,M,0000,0000*6A

$GPGSA,A,3,14,08,32,27,22,,,,,,,,5.61,2.28,5.12*07

$GPRMC,181118.000,A,4244.0760,N,02318.0059,E,0.23,28.13,030619,,,D*5C

$GPVTG,28.13,T,,M,0.23,N,0.43,K,D*06

$GPGGA,181119.000,4244.0760,N,02318.0059,E,2,05,1.95,392.2,M,36.7,M,0000,0000*6D

$GPGSA,A,3,14,08,32,27,22,,,,,,,,2.19,1.95,0.98*0D

$GPRMC,181119.000,A,4244.0760,N,02318.0059,E,0.30,40.23,030619,,,D*52

$GPVTG,40.23,T,,M,0.30,N,0.55,K,D*0E

$GPGGA,181120.000,4244.0761,N,02318.0060,E,2,05,1.95,392.2,M,36.7,M,0000,0000*6C

$GPGSA,A,3,14,08,32,27,22,,,,,,,,2.18,1.95,0.98*0C

$GPGSV,3,1,11,08,61,219,34,32,55,091,26,14,53,125,18,11,51,303,*7C

$GPGSV,3,2,11,22,40,254,28,01,39,303,17,49,37,206,30,27,36,174,34*73

$GPGSV,3,3,11,10,28,057,17,03,19,247,16,28,12,315,*45

$GPRMC,181120.000,A,4244.0761,N,02318.0060,E,0.38,44.08,030619,,,D*56

$GPVTG,44.08,T,,M,0.38,N,0.71,K,D*0D

$GPGGA,181121.000,4244.0762,N,02318.0061,E,2,05,1.95,392.2,M,36.7,M,0000,0000*6F

$GPGSA,A,3,14,08,32,27,22,,,,,,,,2.18,1.95,0.98*0C

$GPRMC,181121.000,A,4244.0762,N,02318.0061,E,0.34,44.27,030619,,,D*54

$GPVTG,44.27,T,,M,0.34,N,0.63,K,D*0F

$GPGGA,181122.000,4244.0762,N,02318.0062,E,2,05,1.95,392.2,M,36.7,M,0000,0000*6F

$GPGSA,A,3,14,08,32,27,22,,,,,,,,2.18,1.95,0.98*0C

$GPRMC,181122.000,A,4244.0762,N,02318.0062,E,0.30,46.57,030619,,,D*55

$GPVTG,46.57,T,,M,0.30,N,0.55,K,D*0B

$GPGGA,181123.000,4244.0763,N,02318.0062,E,2,05,1.95,392.2,M,36.7,M,0000,0000*6F

$GPGSA,A,3,14,08,32,27,22,,,,,,,,2.18,1.95,0.98*0C

$GPRMC,181123.000,A,4244.0763,N,02318.0062,E,0.30,64.83,030619,,,D*5C

$GPVTG,64.83,T,,M,0.30,N,0.55,K,D*02

$GPGGA,181124.000,4244.0763,N,02318.0063,E,2,05,1.95,392.2,M,36.7,M,0000,0000*69

$GPGSA,A,3,14,08,32,27,22,,,,,,,,2.18,1.95,0.98*0C

$GPRMC,181124.000,A,4244.0763,N,02318.0063,E,0.24,46.34,030619,,,D*53

$GPVTG,46.34,T,,M,0.24,N,0.45,K,D*0A

$GPGGA,181125.000,4244.0764,N,02318.0064,E,2,05,1.95,392.2,M,36.7,M,0000,0000*68

$GPGSA,A,3,14,08,32,27,22,,,,,,,,2.18,1.95,0.98*0C

$GPGSV,3,1,11,08,61,219,34,32,55,091,27,14,53,125,18,11,51,303,*7D

$GPGSV,3,2,11,22,40,254,28,01,39,303,17,49,37,206,30,27,36,174,34*73

$GPGSV,3,3,11,10,28,057,18,03,19,247,16,28,12,315,*4A

$GPRMC,181125.000,A,4244.0764,N,02318.0064,E,0.22,42.27,030619,,,D*52

$GPVTG,42.27,T,,M,0.22,N,0.40,K,D*0F

$GPGGA,181126.000,4244.0764,N,02318.0064,E,2,05,1.95,392.2,M,36.7,M,0000,0000*6B

$GPGSA,A,3,14,08,32,27,22,,,,,,,,2.18,1.95,0.98*0C

$GPRMC,181126.000,A,4244.0764,N,02318.0064,E,0.12,1.59,030619,,,D*6C

$GPVTG,1.59,T,,M,0.12,N,0.22,K,D*36

$GPGGA,181127.000,4244.0764,N,02318.0064,E,2,05,2.28,392.2,M,36.7,M,0000,0000*6F

$GPGSA,A,3,14,08,32,27,22,,,,,,,,5.61,2.28,5.13*06

$GPRMC,181127.000,A,4244.0764,N,02318.0064,E,0.14,288.64,030619,,,D*66

$GPVTG,288.64,T,,M,0.14,N,0.25,K,D*3A

$GPGGA,181128.000,4244.0764,N,02318.0064,E,2,05,1.95,392.2,M,36.7,M,0000,0000*65

$GPGSA,A,3,14,08,32,27,22,,,,,,,,2.18,1.95,0.98*0C

$GPRMC,181128.000,A,4244.0764,N,02318.0064,E,0.35,325.37,030619,,,D*6A

$GPVTG,325.37,T,,M,0.35,N,0.64,K,D*3C

$GPGGA,181129.000,4244.0765,N,02318.0063,E,2,05,1.95,392.2,M,36.7,M,0000,0000*62

$GPGSA,A,3,14,08,32,27,22,,,,,,,,2.18,1.95,0.98*0C

$GPRMC,181129.000,A,4244.0765,N,02318.0063,E,0.26,334.58,030619,,,D*66

$GPVTG,334.58,T,,M,0.26,N,0.48,K,D*39

$GPGGA,181130.000,4244.0766,N,02318.0062,E,2,05,1.95,392.3,M,36.7,M,0000,0000*69

$GPGSA,A,3,14,08,32,27,22,,,,,,,,2.18,1.95,0.98*0C

$GPGSV,3,1,11,08,61,219,34,32,55,091,28,14,53,125,17,11,51,303,*7D

$GPGSV,3,2,11,22,40,254,28,01,39,303,17,49,37,206,30,27,36,174,33*74

$GPGSV,3,3,11,10,28,057,20,03,19,247,16,28,12,315,*41

$GPRMC,181130.000,A,4244.0766,N,02318.0062,E,0.17,304.78,030619,,,D*6F

$GPVTG,304.78,T,,M,0.17,N,0.32,K,D*37

$GPGGA,181131.000,4244.0766,N,02318.0062,E,2,05,1.95,392.3,M,36.7,M,0000,0000*68

$GPGSA,A,3,14,08,32,27,22,,,,,,,,2.18,1.95,0.98*0C

$GPRMC,181131.000,A,4244.0766,N,02318.0062,E,0.07,303.02,030619,,,D*65

$GPVTG,303.02,T,,M,0.07,N,0.14,K,D*38

$GPGGA,181132.000,4244.0766,N,02318.0062,E,2,05,1.95,392.3,M,36.7,M,0000,0000*6B

$GPGSA,A,3,14,08,32,27,22,,,,,,,,2.18,1.95,0.98*0C

$GPRMC,181132.000,A,4244.0766,N,02318.0062,E,0.00,70.27,030619,,,D*51

$GPVTG,70.27,T,,M,0.00,N,0.00,K,D*0A

$GPGGA,181133.000,4244.0766,N,02318.0061,E,2,05,1.95,392.3,M,36.7,M,0000,0000*69

$GPGSA,A,3,14,08,32,27,22,,,,,,,,2.18,1.95,0.98*0C

$GPRMC,181133.000,A,4244.0766,N,02318.0061,E,0.10,344.62,030619,,,D*67

$GPVTG,344.62,T,,M,0.10,N,0.19,K,D*36

$GPGGA,181134.000,4244.0766,N,02318.0061,E,2,05,1.95,392.3,M,36.7,M,0000,0000*6E

$GPGSA,A,3,14,08,32,27,22,,,,,,,,2.18,1.95,0.98*0C

$GPRMC,181134.000,A,4244.0766,N,02318.0061,E,0.19,53.54,030619,,,D*59

$GPVTG,53.54,T,,M,0.19,N,0.35,K,D*01

$GPGGA,181135.000,4244.0766,N,02318.0062,E,2,05,1.95,392.3,M,36.7,M,0000,0000*6C

$GPGSA,A,3,14,08,32,27,22,,,,,,,,2.18,1.95,0.98*0C

$GPGSV,3,1,11,08,61,219,32,32,55,091,28,14,53,125,16,11,51,303,22*7A

$GPGSV,3,2,11,22,40,254,29,01,39,303,17,49,37,206,30,27,35,174,33*76

$GPGSV,3,3,11,10,28,057,21,03,19,247,16,28,12,314,*41

$GPRMC,181135.000,A,4244.0766,N,02318.0062,E,0.35,66.52,030619,,,D*55

$GPVTG,66.52,T,,M,0.35,N,0.66,K,D*09

$GPGGA,181136.000,4244.0767,N,02318.0063,E,2,05,1.95,392.3,M,36.7,M,0000,0000*6F

$GPGSA,A,3,14,08,32,27,22,,,,,,,,2.18,1.95,0.98*0C

$GPRMC,181136.000,A,4244.0767,N,02318.0063,E,0.27,58.37,030619,,,D*5B

$GPVTG,58.37,T,,M,0.27,N,0.50,K,D*01

$GPGGA,181137.000,4244.0767,N,02318.0064,E,2,05,1.94,392.3,M,36.7,M,0000,0000*68

$GPGSA,A,3,14,08,32,27,22,,,,,,,,2.18,1.94,0.98*0D

