
$GPRMC,185228.000,A,4244.0568,N,02317.9848,E,0.35,220.55,030619,,,A*66

$GPVTG,220.55,T,,M,0.35,N,0.64,K,A*39

$GPGGA,185229.000,4244.0567,N,02317.9847,E,1,08,1.23,484.2,M,36.7,M,,*6E

$GPGSA,A,3,14,08,32,27,22,03,11,18,,,,,1.54,1.23,0.94*0C

$GPRMC,185229.000,A,4244.0567,N,02317.9847,E,0.43,212.38,030619,,,A*6C

$GPVTG,212.38,T,,M,0.43,N,0.79,K,A*3E

$GPGGA,185230.000,4244.0566,N,02317.9846,E,1,08,1.23,484.2,M,36.7,M,,*66

$GPGSA,A,3,14,08,32,27,22,03,11,18,,,,,1.54,1.23,0.94*0C

$GPGSV,4,1,15,18,83,357,16,11,68,286,23,14,59,091,24,01,56,313,*7B

$GPGSV,4,2,15,22,55,272,20,32,48,063,12,08,44,201,23,03,34,260,29*74

$GPGSV,4,3,15,40,26,128,,27,17,174,32,10,13,066,20,28,10,298,*78

$GPGSV,4,4,15,31,09,122,25,23,02,207,,17,02,329,*4A

$GPRMC,185230.000,A,4244.0566,N,02317.9846,E,0.47,226.74,030619,,,A*6F

$GPVTG,226.74,T,,M,0.47,N,0.88,K,A*3B

$GPGGA,185231.000,4244.0561,N,02317.9844,E,1,09,1.14,484.6,M,36.7,M,,*63

$GPGSA,A,3,14,08,32,27,22,03,11,18,31,,,,1.46,1.14,0.90*0D

$GPRMC,185231.000,A,4244.0561,N,02317.9844,E,0.49,224.08,030619,,,A*6C

$GPVTG,224.08,T,,M,0.49,N,0.92,K,A*37

$GPGGA,185232.000,4244.0559,N,02317.9842,E,1,09,1.14,484.6,M,36.7,M,,*6D

$GPGSA,A,3,14,08,32,27,22,03,11,18,31,,,,1.46,1.14,0.90*0D

$GPRMC,185232.000,A,4244.0559,N,02317.9842,E,0.51,226.10,030619,,,A*60

$GPVTG,226.10,T,,M,0.51,N,0.94,K,A*33

$GPGGA,185233.000,4244.0558,N,02317.9842,E,1,09,1.14,484.6,M,36.7,M,,*6D

$GPGSA,A,3,14,08,32,27,22,03,11,18,31,,,,1.46,1.14,0.90*0D

$GPRMC,185233.000,A,4244.0558,N,02317.9842,E,0.48,224.78,030619,,,A*64

$GPVTG,224.78,T,,M,0.48,N,0.89,K,A*3B

$GPGGA,185234.000,4244.0556,N,02317.9841,E,1,09,1.14,484.6,M,36.7,M,,*67

$GPGSA,A,3,14,08,32,27,22,03,11,18,31,,,,1.46,1.14,0.90*0D

$GPRMC,185234.000,A,4244.0556,N,02317.9841,E,0.47,225.12,030619,,,A*6C

$GPVTG,225.12,T,,M,0.47,N,0.87,K,A*37

$GPGGA,185235.000,4244.0555,N,02317.9840,E,1,09,1.14,484.6,M,36.7,M,,*64

$GPGSA,A,3,14,08,32,27,22,03,11,18,31,,,,1.46,1.14,0.90*0D

$GPGSV,4,1,15,18,83,357,17,11,68,286,21,14,59,091,24,01,56,313,*78

$GPGSV,4,2,15,22,55,272,21,32,48,062,13,08,44,201,23,03,34,260,31*7C

$GPGSV,4,3,15,44,25,126,,27,17,174,32,10,13,066,17,28,10,298,*75

$GPGSV,4,4,15,31,09,122,24,23,02,207,,17,02,329,*4B

$GPRMC,185235.000,A,4244.0555,N,02317.9840,E,0.58,211.42,030619,,,A*63

$GPVTG,211.42,T,,M,0.58,N,1.08,K,A*3D

$GPGGA,185236.000,4244.0551,N,02317.9837,E,1,08,1.31,485.0,M,36.7,M,,*62

$GPGSA,A,3,14,08,27,22,03,11,18,31,,,,,1.59,1.31,0.91*04

$GPRMC,185236.000,A,4244.0551,N,02317.9837,E,0.53,221.51,030619,,,A*6E

$GPVTG,221.51,T,,M,0.53,N,0.99,K,A*3E

$GPGGA,185237.000,4244.0546,N,02317.9837,E,1,08,1.31,485.3,M,36.7,M,,*66

$GPGSA,A,3,14,08,27,22,03,11,18,31,,,,,1.59,1.31,0.91*04

$GPRMC,185237.000,A,4244.0546,N,02317.9837,E,0.40,214.59,030619,,,A*65

$GPVTG,214.59,T,,M,0.40,N,0.74,K,A*31

$GPGGA,185238.000,4244.0549,N,02317.9839,E,1,09,1.20,485.3,M,36.7,M,,*69

$GPGSA,A,3,14,08,27,22,01,03,11,18,31,,,,1.50,1.20,0.89*05

$GPRMC,185238.000,A,4244.0549,N,02317.9839,E,0.16,193.91,030619,,,A*60

$GPVTG,193.91,T,,M,0.16,N,0.30,K,A*3A

$GPGGA,185239.000,4244.0550,N,02317.9841,E,1,08,1.31,485.3,M,36.7,M,,*6E

$GPGSA,A,3,14,08,27,22,03,11,18,31,,,,,1.59,1.31,0.91*04

$GPRMC,185239.000,A,4244.0550,N,02317.9841,E,0.09,155.28,030619,,,A*60

$GPVTG,155.28,T,,M,0.09,N,0.17,K,A*39

$GPGGA,185240.000,4244.0550,N,02317.9841,E,1,08,1.31,485.3,M,36.7,M,,*60

$GPGSA,A,3,14,08,27,22,03,11,18,31,,,,,1.59,1.31,0.91*04

$GPGSV,4,1,15,18,83,357,15,11,68,286,20,14,59,091,21,01,56,313,*7E

$GPGSV,4,2,15,22,55,272,21,32,48,062,,08,44,201,23,03,34,260,31*7E

$GPGSV,4,3,15,44,25,126,,27,17,174,31,10,13,066,17,28,10,298,*76

$GPGSV,4,4,15,31,09,122,23,23,02,207,,17,02,329,*4C

$GPRMC,185240.000,A,4244.0550,N,02317.9841,E,0.09,244.25,030619,,,A*60

$GPVTG,244.25,T,,M,0.09,N,0.17,K,A*37

$GPGGA,185241.000,4244.0550,N,02317.9841,E,1,08,1.31,485.3,M,36.7,M,,*61

$GPGSA,A,3,14,08,27,22,03,11,18,31,,,,,1.59,1.31,0.91*04

$GPRMC,185241.000,A,4244.0550,N,02317.9841,E,0.25,305.38,030619,,,A*67

$GPVTG,305.38,T,,M,0.25,N,0.46,K,A*35

$GPGGA,185242.000,4244.0550,N,02317.9840,E,1,09,1.20,485.4,M,36.7,M,,*65

$GPGSA,A,3,14,08,27,22,01,03,11,18,31,,,,1.50,1.20,0.89*05

$GPRMC,185242.000,A,4244.0550,N,02317.9840,E,0.37,329.62,030619,,,A*67

$GPVTG,329.62,T,,M,0.37,N,0.69,K,A*3A

$GPGGA,185243.000,4244.0551,N,02317.9840,E,1,09,1.20,485.4,M,36.7,M,,*65

$GPGSA,A,3,14,08,27,22,01,03,11,18,31,,,,1.50,1.20,0.89*05

$GPRMC,185243.000,A,4244.0551,N,02317.9840,E,0.27,340.37,030619,,,A*69

$GPVTG,340.37,T,,M,0.27,N,0.50,K,A*3E

$GPGGA,185244.000,4244.0552,N,02317.9839,E,1,09,1.20,485.4,M,36.7,M,,*6F

$GPGSA,A,3,14,08,27,22,01,03,11,18,31,,,,1.50,1.20,0.89*05

$GPRMC,185244.000,A,4244.0552,N,02317.9839,E,0.23,354.25,030619,,,A*61

$GPVTG,354.25,T,,M,0.23,N,0.43,K,A*3E

$GPGGA,185245.000,4244.0552,N,02317.9839,E,1,08,1.70,485.4,M,36.7,M,,*6A
