
$GPGGA,154058.000,4239.7598,N,02322.3963,E,1,04,4.03,580.5,M,36.7,M,,*69

$GPGSA,A,3,20,10,29,15,,,,,,,,,4.14,4.03,0.97*06

$GPRMC,154058.000,A,4239.7598,N,02322.3963,E,0.37,101.74,150519,,,A*6C

$GPVTG,101.74,T,,M,0.37,N,0.68,K,A*34

$GPGGA,154059.000,4239.7598,N,02322.3965,E,1,04,4.03,580.5,M,36.7,M,,*6E

$GPGSA,A,3,20,10,29,15,,,,,,,,,4.14,4.03,0.97*06

$GPRMC,154059.000,A,4239.7598,N,02322.3965,E,0.26,91.46,150519,,,A*52

$GPVTG,91.46,T,,M,0.26,N,0.48,K,A*0F

$GPGGA,154100.000,4239.7598,N,02322.3966,E,1,04,4.03,580.5,M,36.7,M,,*60

$GPGSA,A,3,20,10,29,15,,,,,,,,,4.14,4.03,0.97*06

$GPRMC,154100.000,A,4239.7598,N,02322.3966,E,0.12,152.31,150519,,,A*65

$GPVTG,152.31,T,,M,0.12,N,0.23,K,A*3B

$GPGGA,154101.000,4239.7598,N,02322.3966,E,1,04,4.02,580.5,M,36.7,M,,*60

$GPGSA,A,3,20,10,29,15,,,,,,,,,4.14,4.02,0.97*07

$GPRMC,154101.000,A,4239.7598,N,02322.3966,E,0.22,129.02,150519,,,A*6B

$GPVTG,129.02,T,,M,0.22,N,0.42,K,A*33

$GPGGA,154102.000,4239.7597,N,02322.3967,E,1,04,4.02,580.5,M,36.7,M,,*6D

$GPGSA,A,3,20,10,29,15,,,,,,,,,4.13,4.02,0.97*00

$GPGSV,2,1,06,21,66,044,14,20,60,152,33,10,37,178,43,44,25,126,*76

$GPGSV,2,2,06,29,16,105,34,15,13,078,34*7E

$GPRMC,154102.000,A,4239.7597,N,02322.3967,E,0.20,155.01,150519,,,A*6C

$GPVTG,155.01,T,,M,0.20,N,0.37,K,A*3B

$GPGGA,154103.000,4239.7597,N,02322.3967,E,1,04,4.02,580.5,M,36.7,M,,*6C

$GPGSA,A,3,20,10,29,15,,,,,,,,,4.13,4.02,0.97*00

$GPRMC,154103.000,A,4239.7597,N,02322.3967,E,0.17,97.79,150519,,,A*59

$GPVTG,97.79,T,,M,0.17,N,0.32,K,A*0A

$GPGGA,154104.000,4239.7596,N,02322.3968,E,1,04,4.02,580.5,M,36.7,M,,*65

$GPGSA,A,3,20,10,29,15,,,,,,,,,4.13,4.02,0.97*00

$GPRMC,154104.000,A,4239.7596,N,02322.3968,E,0.24,112.65,150519,,,A*61

$GPVTG,112.65,T,,M,0.24,N,0.44,K,A*3A

$GPGGA,154105.000,4239.7596,N,02322.3969,E,1,04,4.02,580.5,M,36.7,M,,*65

$GPGSA,A,3,20,10,29,15,,,,,,,,,4.13,4.02,0.97*00

$GPRMC,154105.000,A,4239.7596,N,02322.3969,E,0.32,141.79,150519,,,A*6D

$GPVTG,141.79,T,,M,0.32,N,0.59,K,A*3A

$GPGGA,154106.000,4239.7595,N,02322.3969,E,1,04,4.01,580.5,M,36.7,M,,*66

$GPGSA,A,3,20,10,29,15,,,,,,,,,4.13,4.01,0.97*03

$GPRMC,154106.000,A,4239.7595,N,02322.3969,E,0.25,147.36,150519,,,A*66

$GPVTG,147.36,T,,M,0.25,N,0.46,K,A*3F

$GPGGA,154107.000,4239.7595,N,02322.3970,E,1,04,4.01,580.5,M,36.7,M,,*6F

$GPGSA,A,3,20,10,29,15,,,,,,,,,4.12,4.01,0.97*02

$GPGSV,2,1,06,21,66,044,13,20,60,152,29,10,37,178,44,44,25,126,*7D

$GPGSV,2,2,06,29,16,105,31,15,13,078,33*7C

$GPRMC,154107.000,A,4239.7595,N,02322.3970,E,0.13,158.43,150519,,,A*66

$GPVTG,158.43,T,,M,0.13,N,0.24,K,A*32

$GPGGA,154108.000,4239.7594,N,02322.3970,E,1,04,4.01,580.5,M,36.7,M,,*61

$GPGSA,A,3,20,10,29,15,,,,,,,,,4.12,4.01,0.97*02

$GPRMC,154108.000,A,4239.7594,N,02322.3970,E,0.17,129.55,150519,,,A*6D

$GPVTG,129.55,T,,M,0.17,N,0.31,K,A*33

$GPGGA,154109.000,4239.7594,N,02322.3971,E,1,04,4.01,580.5,M,36.7,M,,*61

$GPGSA,A,3,20,10,29,15,,,,,,,,,4.12,4.01,0.97*02

$GPRMC,154109.000,A,4239.7594,N,02322.3971,E,0.28,142.66,150519,,,A*6C

$GPVTG,142.66,T,,M,0.28,N,0.52,K,A*37

$GPGGA,154110.000,4239.7593,N,02322.3971,E,1,04,4.01,580.5,M,36.7,M,,*6E

$GPGSA,A,3,20,10,29,15,,,,,,,,,4.12,4.01,0.97*02

$GPRMC,154110.000,A,4239.7593,N,02322.3971,E,0.21,272.33,150519,,,A*6A

$GPVTG,272.33,T,,M,0.21,N,0.38,K,A*32

$GPGGA,154111.000,4239.7593,N,02322.3970,E,1,04,4.00,580.5,M,36.7,M,,*6F

$GPGSA,A,3,20,10,29,15,,,,,,,,,4.12,4.00,0.97*03

$GPRMC,154111.000,A,4239.7593,N,02322.3970,E,0.31,333.91,150519,,,A*67

$GPVTG,333.91,T,,M,0.31,N,0.57,K,A*36

$GPGGA,154112.000,4239.7594,N,02322.3970,E,1,04,4.00,580.5,M,36.7,M,,*6B

$GPGSA,A,3,20,10,29,15,,,,,,,,,4.12,4.00,0.97*03

$GPGSV,2,1,06,21,66,044,23,20,60,152,41,10,37,178,44,29,16,105,35*7C

$GPGSV,2,2,06,15,13,078,36,34,,,*44

$GPRMC,154112.000,A,4239.7594,N,02322.3970,E,0.47,338.20,150519,,,A*63

$GPVTG,338.20,T,,M,0.47,N,0.88,K,A*34

$GPGGA,154113.000,4239.7596,N,02322.3969,E,1,04,4.00,580.5,M,36.7,M,,*60

$GPGSA,A,3,20,10,29,15,,,,,,,,,4.12,4.00,0.97*03

$GPRMC,154113.000,A,4239.7596,N,02322.3969,E,0.58,295.31,150519,,,A*60

$GPVTG,295.31,T,,M,0.58,N,1.08,K,A*35

$GPGGA,154114.000,4239.7596,N,02322.3961,E,1,04,4.00,580.6,M,36.7,M,,*6C

$GPGSA,A,3,20,10,29,15,,,,,,,,,4.11,4.00,0.97*00

$GPRMC,154114.000,A,4239.7596,N,02322.3961,E,0.33,331.16,150519,,,A*68

$GPVTG,331.16,T,,M,0.33,N,0.61,K,A*3C

$GPGGA,154115.000,4239.7597,N,02322.3954,E,1,04,3.99,580.4,M,36.7,M,,*6F

$GPGSA,A,3,20,10,29,15,,,,,,,,,4.11,3.99,0.97*07

$GPRMC,154115.000,A,4239.7597,N,02322.3954,E,0.64,269.94,150519,,,A*6A

$GPVTG,269.94,T,,M,0.64,N,1.18,K,A*37

$GPGGA,154116.000,4239.7604,N,02322.3945,E,1,04,3.99,580.4,M,36.7,M,,*65

$GPGSA,A,3,20,10,29,15,,,,,,,,,4.11,3.99,0.97*07

$GPRMC,154116.000,A,4239.7604,N,02322.3945,E,0.76,346.98,150519,,,A*63

$GPVTG,346.98,T,,M,0.76,N,1.41,K,A*38

$GPGGA,154117.000,4239.7604,N,02322.3943,E,1,04,5.02,580.3,M,36.7,M,,*61

$GPGSA,A,3,20,10,29,15,,,,,,,,,6.38,5.02,3.93*0D

$GPGSV,2,1,06,21,66,044,24,20,60,152,35,10,37,178,32,29,16,105,41*7A

$GPGSV,2,2,06,15,13,078,41,35,,,*45

$GPRMC,154117.000,A,4239.7604,N,02322.3943,E,0.77,326.08,150519,,,A*6A

$GPVTG,326.08,T,,M,0.77,N,1.43,K,A*34

$GPGGA,154118.000,4239.7604,N,02322.3938,E,1,04,3.99,580.5,M,36.7,M,,*60

$GPGSA,A,3,20,10,29,15,,,,,,,,,4.11,3.99,0.97*07

$GPRMC,154118.000,A,4239.7604,N,02322.3938,E,0.95,305.21,150519,,,A*6F

$GPVTG,305.21,T,,M,0.95,N,1.76,K,A*34

$GPGGA,154119.000,4239.7601,N,02322.3940,E,1,04,3.99,580.5,M,36.7,M,,*6B

$GPGSA,A,3,20,10,29,15,,,,,,,,,4.11,3.99,0.97*07

$GPRMC,154119.000,A,4239.7601,N,02322.3940,E,0.84,302.59,150519,,,A*6C

$GPVTG,302.59,T,,M,0.84,N,1.56,K,A*3E

$GPGGA,154120.000,4239.7598,N,02322.3943,E,1,04,3.99,580.7,M,36.7,M,,*63

$GPGSA,A,3,20,10,29,15,,,,,,,,,4.10,3.99,0.97*06

$GPRMC,154120.000,A,4239.7598,N,02322.3943,E,0.79,305.76,150519,,,A*6E

$GPVTG,305.76,T,,M,0.79,N,1.45,K,A*34

$GPGGA,154121.000,4239.7598,N,02322.3943,E,1,04,3.99,580.5,M,36.7,M,,*60

$GPGSA,A,3,20,10,29,15,,,,,,,,,4.10,3.99,0.97*06

$GPRMC,154121.000,A,4239.7598,N,02322.3943,E,0.63,310.37,150519,,,A*65

$GPVTG,310.37,T,,M,0.63,N,1.17,K,A*39

$GPGGA,154122.000,4239.7597,N,02322.3943,E,1,04,3.99,580.4,M,36.7,M,,*6D

$GPGSA,A,3,20,10,29,15,,,,,,,,,4.10,3.99,0.97*06

$GPGSV,2,1,06,21,66,044,23,20,60,152,38,10,37,178,40,29,16,105,44*70

$GPGSV,2,2,06,15,13,078,39,36,,,*49

$GPRMC,154122.000,A,4239.7597,N,02322.3943,E,0.40,332.13,150519,,,A*6E

$GPVTG,332.13,T,,M,0.40,N,0.73,K,A*3D

$GPGGA,154123.000,4239.7600,N,02322.3940,E,1,04,3.98,580.3,M,36.7,M,,*64

$GPGSA,A,3,20,10,29,15,,,,,,,,,4.10,3.98,0.97*07

$GPRMC,154123.000,A,4239.7600,N,02322.3940,E,0.50,320.20,150519,,,A*63

$GPVTG,320.20,T,,M,0.50,N,0.93,K,A*31

$GPGGA,154124.000,4239.7601,N,02322.3941,E,1,04,3.98,580.5,M,36.7,M,,*65

$GPGSA,A,3,20,10,29,15,,,,,,,,,4.10,3.98,0.97*07

$GPRMC,154124.000,A,4239.7601,N,02322.3941,E,0.52,325.02,150519,,,A*63

$GPVTG,325.02,T,,M,0.52,N,0.97,K,A*32

$GPGGA,154125.000,4239.7605,N,02322.3934,E,1,04,3.98,580.2,M,36.7,M,,*65

$GPGSA,A,3,20,10,29,15,,,,,,,,,4.09,3.98,0.97*0F

$GPRMC,154125.000,A,4239.7605,N,02322.3934,E,0.64,301.46,150519,,,A*67

$GPVTG,301.46,T,,M,0.64,N,1.18,K,A*37

$GPGGA,154126.000,4239.7608,N,02322.3928,E,1,04,3.98,580.1,M,36.7,M,,*65

$GPGSA,A,3,20,10,29,15,,,,,,,,,4.09,3.98,0.97*0F

$GPRMC,154126.000,A,4239.7608,N,02322.3928,E,0.46,308.44,150519,,,A*6F

$GPVTG,308.44,T,,M,0.46,N,0.85,K,A*39

$GPGGA,154127.000,4239.7609,N,02322.3926,E,1,04,3.98,579.9,M,36.7,M,,*65

$GPGSA,A,3,20,10,29,15,,,,,,,,,4.09,3.98,0.97*0F

$GPGSV,2,1,06,21,66,044,18,20,60,152,40,10,38,178,40,29,16,105,36*7D

$GPGSV,2,2,06,15,13,078,32,36,,,41*47

$GPRMC,154127.000,A,4239.7609,N,02322.3926,E,0.42,306.57,150519,,,A*69

$GPVTG,306.57,T,,M,0.42,N,0.79,K,A*32

$GPGGA,154128.000,4239.7609,N,02322.3926,E,1,04,3.97,579.7,M,36.7,M,,*6B

$GPGSA,A,3,20,10,29,15,,,,,,,,,4.09,3.97,0.97*00

$GPRMC,154128.000,A,4239.7609,N,02322.3926,E,0.52,311.45,150519,,,A*62

$GPVTG,311.45,T,,M,0.52,N,0.96,K,A*37

$GPGGA,154129.000,4239.7609,N,02322.3926,E,1,04,3.97,579.5,M,36.7,M,,*68

$GPGSA,A,3,20,10,29,15,,,,,,,,,4.09,3.97,0.97*00

$GPRMC,154129.000,A,4239.7609,N,02322.3926,E,0.44,312.10,150519,,,A*67

$GPVTG,312.10,T,,M,0.44,N,0.82,K,A*36

$GPGGA,154130.000,4239.7609,N,02322.3925,E,1,04,3.97,579.5,M,36.7,M,,*63

$GPGSA,A,3,20,10,29,15,,,,,,,,,4.09,3.97,0.97*00

$GPRMC,154130.000,A,4239.7609,N,02322.3925,E,0.71,335.51,150519,,,A*6A

$GPVTG,335.51,T,,M,0.71,N,1.32,K,A*3A

$GPGGA,154131.000,4239.7610,N,02322.3926,E,1,04,3.97,579.5,M,36.7,M,,*69

$GPGSA,A,3,20,10,29,15,,,,,,,,,4.08,3.97,0.97*01

$GPRMC,154131.000,A,4239.7610,N,02322.3926,E,0.71,329.73,150519,,,A*6D

$GPVTG,329.73,T,,M,0.71,N,1.32,K,A*37

$GPGGA,154132.000,4239.7609,N,02322.3926,E,1,04,3.97,579.5,M,36.7,M,,*62

$GPGSA,A,3,20,10,29,15,,,,,,,,,4.08,3.97,0.97*01

$GPGSV,2,1,06,21,66,044,22,20,60,152,41,10,38,178,36,29,16,105,41*74

$GPGSV,2,2,06,15,13,078,42,36,,,39*4F

$GPRMC,154132.000,A,4239.7609,N,02322.3926,E,0.54,346.15,150519,,,A*68

$GPVTG,346.15,T,,M,0.54,N,1.00,K,A*38

$GPGGA,154133.000,4239.7613,N,02322.3921,E,1,04,5.01,579.3,M,36.7,M,,*60

$GPGSA,A,3,20,10,29,15,,,,,,,,,6.37,5.01,3.94*06

$GPRMC,154133.000,A,4239.7613,N,02322.3921,E,0.45,323.68,150519,,,A*6C

$GPVTG,323.68,T,,M,0.45,N,0.83,K,A*3B

$GPGGA,154134.000,4239.7611,N,02322.3922,E,1,04,3.96,579.4,M,36.7,M,,*69

$GPGSA,A,3,20,10,29,15,,,,,,,,,4.08,3.96,0.97*00

$GPRMC,154134.000,A,4239.7611,N,02322.3922,E,0.49,310.67,150519,,,A*69

$GPVTG,310.67,T,,M,0.49,N,0.91,K,A*3B

$GPGGA,154135.000,4239.7610,N,02322.3923,E,1,04,3.96,579.4,M,36.7,M,,*68

$GPGSA,A,3,20,10,29,15,,,,,,,,,4.08,3.96,0.97*00

$GPRMC,154135.000,A,4239.7610,N,02322.3923,E,0.46,319.13,150519,,,A*6D

$GPVTG,319.13,T,,M,0.46,N,0.84,K,A*3A

$GPGGA,154136.000,4239.7611,N,02322.3922,E,1,04,3.96,579.4,M,36.7,M,,*6B

$GPGSA,A,3,20,10,29,15,,,,,,,,,4.08,3.96,0.97*00

$GPRMC,154136.000,A,4239.7611,N,02322.3922,E,0.25,296.43,150519,,,A*68

$GPVTG,296.43,T,,M,0.25,N,0.46,K,A*32

$GPGGA,154137.000,4239.7611,N,02322.3921,E,1,04,3.96,579.4,M,36.7,M,,*69

$GPGSA,A,3,20,10,29,15,,,,,,,,,4.08,3.96,0.97*00

$GPGSV,2,1,06,21,65,044,22,20,61,151,37,36,40,168,40,10,38,178,32*77

$GPGSV,2,2,06,29,16,105,40,15,13,078,42*7C

$GPRMC,154137.000,A,4239.7611,N,02322.3921,E,0.19,274.98,150519,,,A*6F

$GPVTG,274.98,T,,M,0.19,N,0.35,K,A*33

$GPGGA,154138.000,4239.7611,N,02322.3921,E,1,04,3.96,579.4,M,36.7,M,,*66

$GPGSA,A,3,20,10,29,15,,,,,,,,,4.07,3.96,0.97*0F

$GPRMC,154138.000,A,4239.7611,N,02322.3921,E,0.36,239.04,150519,,,A*61

$GPVTG,239.04,T,,M,0.36,N,0.66,K,A*34

$GPGGA,154139.000,4239.7611,N,02322.3920,E,1,04,3.95,579.4,M,36.7,M,,*65

$GPGSA,A,3,20,10,29,15,,,,,,,,,4.07,3.95,0.97*0C

$GPRMC,154139.000,A,4239.7611,N,02322.3920,E,0.03,3.62,150519,,,A*6C

$GPVTG,3.62,T,,M,0.03,N,0.05,K,A*3C

$GPGGA,154140.000,4239.7611,N,02322.3920,E,1,04,5.00,579.4,M,36.7,M,,*61

$GPGSA,A,3,20,10,29,15,,,,,,,,,6.37,5.00,3.94*07

$GPRMC,154140.000,A,4239.7611,N,02322.3920,E,0.25,316.93,150519,,,A*6F

$GPVTG,316.93,T,,M,0.25,N,0.46,K,A*36

$GPGGA,154141.000,4239.7611,N,02322.3919,E,1,04,3.95,579.4,M,36.7,M,,*60

$GPGSA,A,3,20,10,29,15,,,,,,,,,4.07,3.95,0.97*0C

$GPRMC,154141.000,A,4239.7611,N,02322.3919,E,0.27,319.23,150519,,,A*62

$GPVTG,319.23,T,,M,0.27,N,0.49,K,A*3F

$GPGGA,154142.000,4239.7612,N,02322.3918,E,1,04,3.95,579.4,M,36.7,M,,*61

$GPGSA,A,3,20,10,29,15,,,,,,,,,4.07,3.95,0.97*0C

$GPGSV,2,1,06,21,65,044,18,20,61,151,35,36,40,168,33,10,38,178,40*7D

$GPGSV,2,2,06,29,16,105,41,15,13,078,37*7F

$GPRMC,154142.000,A,4239.7612,N,02322.3918,E,0.16,341.04,150519,,,A*69

$GPVTG,341.04,T,,M,0.16,N,0.29,K,A*33

$GPGGA,154143.000,4239.7612,N,02322.3918,E,1,04,3.95,579.4,M,36.7,M,,*60

$GPGSA,A,3,20,10,29,15,,,,,,,,,4.06,3.95,0.97*0D

$GPRMC,154143.000,A,4239.7612,N,02322.3918,E,0.08,28.66,150519,,,A*5F

$GPVTG,28.66,T,,M,0.08,N,0.16,K,A*08

$GPGGA,154144.000,4239.7612,N,02322.3919,E,1,04,3.94,579.4,M,36.7,M,,*67

$GPGSA,A,3,20,10,29,15,,,,,,,,,4.06,3.94,0.97*0C

$GPRMC,154144.000,A,4239.7612,N,02322.3919,E,0.21,91.88,150519,,,A*50

$GPVTG,91.88,T,,M,0.21,N,0.39,K,A*0C

$GPGGA,154145.000,4239.7612,N,02322.3919,E,1,04,3.94,579.4,M,36.7,M,,*66

$GPGSA,A,3,20,10,29,15,,,,,,,,,4.06,3.94,0.97*0C

$GPRMC,154145.000,A,4239.7612,N,02322.3919,E,0.12,147.39,150519,,,A*61

$GPVTG,147.39,T,,M,0.12,N,0.22,K,A*36

$GPGGA,154146.000,4239.7612,N,02322.3920,E,1,04,3.94,579.4,M,36.7,M,,*6F

$GPGSA,A,3,20,10,29,15,,,,,,,,,4.06,3.94,0.97*0C

$GPRMC,154146.000,A,4239.7612,N,02322.3920,E,0.04,225.36,150519,,,A*67

$GPVTG,225.36,T,,M,0.04,N,0.07,K,A*3E

$GPGGA,154147.000,4239.7612,N,02322.3920,E,1,04,3.94,579.4,M,36.7,M,,*6E

$GPGSA,A,3,20,10,29,15,,,,,,,,,4.06,3.94,0.97*0C

$GPGSV,2,1,06,21,65,044,22,20,61,151,29,36,40,168,39,10,38,178,39*7D

$GPGSV,2,2,06,29,16,105,37,15,13,078,37*7E

$GPRMC,154147.000,A,4239.7612,N,02322.3920,E,0.15,274.59,150519,,,A*6B

$GPVTG,274.59,T,,M,0.15,N,0.27,K,A*31

$GPGGA,154148.000,4239.7612,N,02322.3919,E,1,04,3.94,579.4,M,36.7,M,,*6B

$GPGSA,A,3,20,10,29,15,,,,,,,,,4.06,3.94,0.97*0C

$GPRMC,154148.000,A,4239.7612,N,02322.3919,E,0.06,169.05,150519,,,A*6A

$GPVTG,169.05,T,,M,0.06,N,0.11,K,A*30

$GPGGA,154149.000,4239.7612,N,02322.3919,E,1,04,3.94,579.4,M,36.7,M,,*6A

$GPGSA,A,3,20,10,29,15,,,,,,,,,4.05,3.94,0.97*0F

$GPRMC,154149.000,A,4239.7612,N,02322.3919,E,0.12,302.18,150519,,,A*6D

$GPVTG,302.18,T,,M,0.12,N,0.22,K,A*36

$GPGGA,154150.000,4239.7612,N,02322.3919,E,1,04,3.93,579.4,M,36.7,M,,*65

$GPGSA,A,3,20,10,29,15,,,,,,,,,4.05,3.93,0.97*08

$GPRMC,154150.000,A,4239.7612,N,02322.3919,E,0.12,302.68,150519,,,A*62

$GPVTG,302.68,T,,M,0.12,N,0.22,K,A*31

$GPGGA,154151.000,4239.7612,N,02322.3918,E,1,04,3.93,579.4,M,36.7,M,,*65

$GPGSA,A,3,20,10,29,15,,,,,,,,,4.05,3.93,0.97*08

$GPRMC,154151.000,A,4239.7612,N,02322.3918,E,0.24,18.61,150519,,,A*56

$GPVTG,18.61,T,,M,0.24,N,0.44,K,A*05

$GPGGA,154152.000,4239.7613,N,02322.3919,E,1,04,3.93,579.4,M,36.7,M,,*66

$GPGSA,A,3,20,10,29,15,,,,,,,,,4.05,3.93,0.97*08

$GPGSV,2,1,06,21,65,044,18,20,61,151,42,36,40,168,38,10,38,178,38*79

$GPGSV,2,2,06,29,16,105,38,15,13,078,41*70

$GPRMC,154152.000,A,4239.7613,N,02322.3919,E,0.12,296.14,150519,,,A*66

$GPVTG,296.14,T,,M,0.12,N,0.23,K,A*37

$GPGGA,154153.000,4239.7613,N,02322.3918,E,1,04,3.93,579.4,M,36.7,M,,*66

$GPGSA,A,3,20,10,29,15,,,,,,,,,4.04,3.93,0.97*09

$GPRMC,154153.000,A,4239.7613,N,02322.3918,E,0.22,316.01,150519,,,A*68

$GPVTG,316.01,T,,M,0.22,N,0.41,K,A*3D

$GPGGA,154154.000,4239.7613,N,02322.3918,E,1,04,3.93,579.4,M,36.7,M,,*61

$GPGSA,A,3,20,10,29,15,,,,,,,,,4.04,3.93,0.97*09

$GPRMC,154154.000,A,4239.7613,N,02322.3918,E,0.27,307.65,150519,,,A*68

$GPVTG,307.65,T,,M,0.27,N,0.50,K,A*3A

$GPGGA,154155.000,4239.7614,N,02322.3917,E,1,04,3.93,579.4,M,36.7,M,,*68

$GPGSA,A,3,20,10,29,15,,,,,,,,,4.04,3.93,0.97*09

$GPRMC,154155.000,A,4239.7614,N,02322.3917,E,0.27,324.34,150519,,,A*64

$GPVTG,324.34,T,,M,0.27,N,0.51,K,A*3E

$GPGGA,154156.000,4239.7615,N,02322.3916,E,1,04,3.92,579.4,M,36.7,M,,*6A

$GPGSA,A,3,20,10,29,15,,,,,,,,,4.04,3.92,0.97*08

$GPRMC,154156.000,A,4239.7615,N,02322.3916,E,0.21,4.39,150519,,,A*6D

$GPVTG,4.39,T,,M,0.21,N,0.38,K,A*3B

$GPGGA,154157.000,4239.7615,N,02322.3916,E,1,04,4.99,579.4,M,36.7,M,,*67

$GPGSA,A,3,20,10,29,15,,,,,,,,,6.36,4.99,3.95*06

$GPGSV,2,1,06,21,65,044,21,20,61,151,41,36,40,168,40,10,38,178,41*71

$GPGSV,2,2,06,29,16,105,43,15,13,078,36*7C

$GPRMC,154157.000,A,4239.7615,N,02322.3916,E,0.19,288.99,150519,,,A*6B

$GPVTG,288.99,T,,M,0.19,N,0.36,K,A*32

$GPGGA,154158.000,4239.7615,N,02322.3916,E,1,04,3.92,579.4,M,36.7,M,,*64

$GPGSA,A,3,20,10,29,15,,,,,,,,,4.04,3.92,0.97*08

$GPRMC,154158.000,A,4239.7615,N,02322.3916,E,0.20,245.10,150519,,,A*6E

$GPVTG,245.10,T,,M,0.20,N,0.37,K,A*39

$GPGGA,154159.000,4239.7615,N,02322.3915,E,1,04,3.92,579.4,M,36.7,M,,*66

$GPGSA,A,3,20,10,29,15,,,,,,,,,4.04,3.92,0.97*08

$GPRMC,154159.000,A,4239.7615,N,02322.3915,E,0.11,314.44,150519,,,A*6A

$GPVTG,314.44,T,,M,0.11,N,0.20,K,A*39

$GPGGA,154200.000,4239.7615,N,02322.3915,E,1,04,3.92,579.4,M,36.7,M,,*69

$GPGSA,A,3,20,10,29,15,,,,,,,,,4.04,3.92,0.97*08

$GPRMC,154200.000,A,4239.7615,N,02322.3915,E,0.14,292.68,150519,,,A*61

$GPVTG,292.68,T,,M,0.14,N,0.27,K,A*3A

$GPGGA,154201.000,4239.7615,N,02322.3914,E,1,04,3.91,579.4,M,36.7,M,,*6A

$GPGSA,A,3,20,10,29,15,,,,,,,,,4.03,3.91,0.97*0C

$GPRMC,154201.000,A,4239.7615,N,02322.3914,E,0.30,324.04,150519,,,A*61

$GPVTG,324.04,T,,M,0.30,N,0.56,K,A*3C

$GPGGA,154202.000,4239.7616,N,02322.3914,E,1,04,3.91,579.4,M,36.7,M,,*6A

$GPGSA,A,3,20,10,29,15,,,,,,,,,4.03,3.91,0.97*0C

$GPGSV,2,1,06,21,65,044,28,20,61,151,42,36,40,168,38,10,38,178,40*75

$GPGSV,2,2,06,29,16,105,39,15,13,078,43*73

$GPRMC,154202.000,A,4239.7616,N,02322.3914,E,0.45,323.40,150519,,,A*64

$GPVTG,323.40,T,,M,0.45,N,0.84,K,A*36

$GPGGA,154203.000,4239.7617,N,02322.3913,E,1,04,3.91,579.4,M,36.7,M,,*6D

$GPGSA,A,3,20,10,29,15,,,,,,,,,4.03,3.91,0.97*0C

$GPRMC,154203.000,A,4239.7617,N,02322.3913,E,0.47,315.30,150519,,,A*63

$GPVTG,315.30,T,,M,0.47,N,0.87,K,A*35

$GPGGA,154204.000,4239.7618,N,02322.3912,E,1,04,3.91,579.4,M,36.7,M,,*64

$GPGSA,A,3,20,10,29,15,,,,,,,,,4.03,3.91,0.97*0C

$GPRMC,154204.000,A,4239.7618,N,02322.3912,E,0.55,305.13,150519,,,A*69

$GPVTG,305.13,T,,M,0.55,N,1.03,K,A*3B

$GPGGA,154205.000,4239.7619,N,02322.3910,E,1,04,3.91,579.4,M,36.7,M,,*66

$GPGSA,A,3,20,10,29,15,,,,,,,,,4.03,3.91,0.97*0C

$GPRMC,154205.000,A,4239.7619,N,02322.3910,E,0.54,320.56,150519,,,A*6C

$GPVTG,320.56,T,,M,0.54,N,1.01,K,A*3E

$GPGGA,154206.000,4239.7620,N,02322.3909,E,1,04,3.91,579.4,M,36.7,M,,*67

$GPGSA,A,3,20,10,29,15,,,,,,,,,4.03,3.91,0.97*0C

$GPRMC,154206.000,A,4239.7620,N,02322.3909,E,0.61,307.38,150519,,,A*66

$GPVTG,307.38,T,,M,0.61,N,1.13,K,A*36

$GPGGA,154207.000,4239.7620,N,02322.3911,E,1,04,3.90,579.3,M,36.7,M,,*69

$GPGSA,A,3,20,10,29,15,,,,,,,,,4.02,3.90,0.97*0C

$GPGSV,2,1,06,21,65,044,30,20,61,151,43,36,40,168,27,10,38,178,42*71

$GPGSV,2,2,06,29,16,105,36,15,13,078,42*7D

$GPRMC,154207.000,A,4239.7620,N,02322.3911,E,0.53,328.07,150519,,,A*6E

$GPVTG,328.07,T,,M,0.53,N,0.99,K,A*35

$GPGGA,154208.000,4239.7614,N,02322.3914,E,1,04,3.90,579.4,M,36.7,M,,*63

$GPGSA,A,3,20,10,29,15,,,,,,,,,4.02,3.90,0.97*0C

$GPRMC,154208.000,A,4239.7614,N,02322.3914,E,0.20,308.99,150519,,,A*62

$GPVTG,308.99,T,,M,0.20,N,0.37,K,A*30

$GPGGA,154209.000,4239.7614,N,02322.3914,E,1,04,3.90,579.5,M,36.7,M,,*63

$GPGSA,A,3,20,10,29,15,,,,,,,,,4.02,3.90,0.97*0C

$GPRMC,154209.000,A,4239.7614,N,02322.3914,E,0.44,324.36,150519,,,A*6A

$GPVTG,324.36,T,,M,0.44,N,0.82,K,A*37

$GPGGA,154210.000,4239.7614,N,02322.3915,E,1,04,3.90,579.6,M,36.7,M,,*69

$GPGSA,A,3,20,10,29,15,,,,,,,,,4.02,3.90,0.97*0C

$GPRMC,154210.000,A,4239.7614,N,02322.3915,E,0.33,358.04,150519,,,A*69

$GPVTG,358.04,T,,M,0.33,N,0.61,K,A*30

$GPGGA,154211.000,4239.7615,N,02322.3915,E,1,04,4.98,579.6,M,36.7,M,,*66

$GPGSA,A,3,20,10,29,15,,,,,,,,,6.36,4.98,3.96*04

$GPRMC,154211.000,A,4239.7615,N,02322.3915,E,0.45,317.54,150519,,,A*66

$GPVTG,317.54,T,,M,0.45,N,0.84,K,A*34

$GPGGA,154212.000,4239.7616,N,02322.3914,E,1,04,3.90,579.6,M,36.7,M,,*68

$GPGSA,A,3,20,10,29,15,,,,,,,,,4.02,3.90,0.97*0C

$GPGSV,2,1,06,21,65,045,30,20,61,151,43,36,40,168,30,10,38,178,43*77

$GPGSV,2,2,06,29,16,105,41,15,13,078,43*7C

$GPRMC,154212.000,A,4239.7616,N,02322.3914,E,0.23,315.07,150519,,,A*63

$GPVTG,315.07,T,,M,0.23,N,0.42,K,A*3A

$GPGGA,154213.000,4239.7616,N,02322.3913,E,1,04,3.90,579.6,M,36.7,M,,*6E

$GPGSA,A,3,20,10,29,15,,,,,,,,,4.01,3.90,0.97*0F

$GPRMC,154213.000,A,4239.7616,N,02322.3913,E,0.29,322.91,150519,,,A*64

$GPVTG,322.91,T,,M,0.29,N,0.53,K,A*3B

$GPGGA,154214.000,4239.7617,N,02322.3913,E,1,04,3.89,579.6,M,36.7,M,,*60

$GPGSA,A,3,20,10,29,15,,,,,,,,,4.01,3.89,0.97*07

$GPRMC,154214.000,A,4239.7617,N,02322.3913,E,0.24,317.49,150519,,,A*6C

$GPVTG,317.49,T,,M,0.24,N,0.45,K,A*32

$GPGGA,154215.000,4239.7617,N,02322.3912,E,1,04,3.89,579.6,M,36.7,M,,*60

$GPGSA,A,3,20,10,29,15,,,,,,,,,4.01,3.89,0.97*07

$GPRMC,154215.000,A,4239.7617,N,02322.3912,E,0.31,311.29,150519,,,A*68

$GPVTG,311.29,T,,M,0.31,N,0.57,K,A*35

$GPGGA,154216.000,4239.7618,N,02322.3911,E,1,04,3.89,579.6,M,36.7,M,,*6F

$GPGSA,A,3,20,10,29,15,,,,,,,,,4.01,3.89,0.97*07

$GPRMC,154216.000,A,4239.7618,N,02322.3911,E,0.30,16.10,150519,,,A*58

$GPVTG,16.10,T,,M,0.30,N,0.56,K,A*0B

$GPGGA,154217.000,4239.7619,N,02322.3911,E,1,04,3.89,579.6,M,36.7,M,,*6F

$GPGSA,A,3,20,10,29,15,,,,,,,,,4.01,3.89,0.97*07

$GPGSV,2,1,06,21,65,045,27,20,61,151,42,36,40,168,37,10,38,178,29*7B

$GPGSV,2,2,06,29,16,105,43,15,13,078,42*7F

$GPRMC,154217.000,A,4239.7619,N,02322.3911,E,0.14,287.45,150519,,,A*64

$GPVTG,287.45,T,,M,0.14,N,0.27,K,A*31

$GPGGA,154218.000,4239.7619,N,02322.3911,E,1,04,3.89,579.6,M,36.7,M,,*60

$GPGSA,A,3,20,10,29,15,,,,,,,,,4.00,3.89,0.97*06

$GPRMC,154218.000,A,4239.7619,N,02322.3911,E,0.27,335.26,150519,,,A*66

$GPVTG,335.26,T,,M,0.27,N,0.49,K,A*34

$GPGGA,154219.000,4239.7619,N,02322.3911,E,1,04,3.89,579.6,M,36.7,M,,*61

$GPGSA,A,3,20,10,29,15,,,,,,,,,4.00,3.89,0.97*06

$GPRMC,154219.000,A,4239.7619,N,02322.3911,E,0.26,321.70,150519,,,A*60

$GPVTG,321.70,T,,M,0.26,N,0.48,K,A*32

$GPGGA,154220.000,4239.7620,N,02322.3910,E,1,04,3.88,579.6,M,36.7,M,,*61

$GPGSA,A,3,20,10,29,15,,,,,,,,,4.00,3.88,0.97*07

$GPRMC,154220.000,A,4239.7620,N,02322.3910,E,0.37,266.77,150519,,,A*64

$GPVTG,266.77,T,,M,0.37,N,0.68,K,A*35

$GPGGA,154221.000,4239.7620,N,02322.3909,E,1,04,3.88,579.6,M,36.7,M,,*68

$GPGSA,A,3,20,10,29,15,,,,,,,,,4.00,3.88,0.97*07

$GPRMC,154221.000,A,4239.7620,N,02322.3909,E,0.11,330.29,150519,,,A*60

$GPVTG,330.29,T,,M,0.11,N,0.21,K,A*35

$GPGGA,154222.000,4239.7620,N,02322.3908,E,1,04,3.88,579.6,M,36.7,M,,*6A

$GPGSA,A,3,20,10,29,15,,,,,,,,,4.00,3.88,0.97*07

$GPGSV,2,1,06,21,65,045,25,20,61,151,33,36,40,168,40,10,38,178,41*71

$GPGSV,2,2,06,29,16,106,41,15,13,078,40*7C

$GPRMC,154222.000,A,4239.7620,N,02322.3908,E,0.36,217.05,150519,,,A*6D

$GPVTG,217.05,T,,M,0.36,N,0.66,K,A*39

$GPGGA,154223.000,4239.7619,N,02322.3908,E,1,04,3.88,579.6,M,36.7,M,,*61

$GPGSA,A,3,20,10,29,15,,,,,,,,,4.00,3.88,0.97*07

$GPRMC,154223.000,A,4239.7619,N,02322.3908,E,0.12,201.81,150519,,,A*6B

$GPVTG,201.81,T,,M,0.12,N,0.22,K,A*34

$GPGGA,154224.000,4239.7619,N,02322.3908,E,1,04,3.87,579.6,M,36.7,M,,*69

$GPGSA,A,3,20,10,29,15,,,,,,,,,3.99,3.87,0.97*0F

$GPRMC,154224.000,A,4239.7619,N,02322.3908,E,0.10,214.08,150519,,,A*6B

$GPVTG,214.08,T,,M,0.10,N,0.19,K,A*3B

$GPGGA,154225.000,4239.7619,N,02322.3907,E,1,04,3.88,579.6,M,36.7,M,,*68

$GPGSA,A,3,20,10,29,15,,,,,,,,,4.00,3.88,0.97*07

$GPRMC,154225.000,A,4239.7619,N,02322.3907,E,0.16,284.01,150519,,,A*63

$GPVTG,284.01,T,,M,0.16,N,0.29,K,A*3E

$GPGGA,154226.000,4239.7619,N,02322.3907,E,1,04,3.87,579.6,M,36.7,M,,*64

$GPGSA,A,3,20,10,29,15,,,,,,,,,3.99,3.87,0.97*0F

$GPRMC,154226.000,A,4239.7619,N,02322.3907,E,0.15,313.13,150519,,,A*6F

$GPVTG,313.13,T,,M,0.15,N,0.28,K,A*30

$GPGGA,154227.000,4239.7620,N,02322.3905,E,2,04,3.87,579.5,M,36.7,M,0000,0000*6D

$GPGSA,A,3,20,10,29,15,,,,,,,,,3.99,3.87,0.97*0F

$GPGSV,2,1,06,21,65,045,25,20,61,151,44,36,40,168,39,10,38,178,40*7E

$GPGSV,2,2,06,29,16,106,40,15,13,078,28*73

$GPRMC,154227.000,A,4239.7620,N,02322.3905,E,0.15,308.22,150519,,,D*6B

$GPVTG,308.22,T,,M,0.15,N,0.28,K,D*3D

$GPGGA,154228.000,4239.7621,N,02322.3904,E,2,04,3.87,579.4,M,36.7,M,0000,0000*63

$GPGSA,A,3,20,10,29,15,,,,,,,,,3.99,3.87,0.97*0F

$GPRMC,154228.000,A,4239.7621,N,02322.3904,E,0.11,308.02,150519,,,D*62

$GPVTG,308.02,T,,M,0.11,N,0.20,K,D*33

$GPGGA,154229.000,4239.7622,N,02322.3903,E,2,04,3.87,579.3,M,36.7,M,0000,0000*61

$GPGSA,A,3,20,10,29,15,,,,,,,,,3.99,3.87,0.97*0F

$GPRMC,154229.000,A,4239.7622,N,02322.3903,E,0.13,304.02,150519,,,D*69

$GPVTG,304.02,T,,M,0.13,N,0.25,K,D*38

$GPGGA,154230.000,4239.7623,N,02322.3901,E,2,04,3.87,579.2,M,36.7,M,0000,0000*6B

$GPGSA,A,3,20,10,29,15,,,,,,,,,3.99,3.87,0.97*0F

$GPRMC,154230.000,A,4239.7623,N,02322.3901,E,0.15,326.70,150519,,,D*61

$GPVTG,326.70,T,,M,0.15,N,0.28,K,D*36

$GPGGA,154231.000,4239.7622,N,02322.3901,E,2,04,3.86,579.2,M,36.7,M,0000,0000*6A

$GPGSA,A,3,20,10,29,15,,,,,,,,,3.98,3.86,0.97*0F

$GPRMC,154231.000,A,4239.7622,N,02322.3901,E,0.23,270.12,150519,,,D*62

$GPVTG,270.12,T,,M,0.23,N,0.42,K,D*39

$GPGGA,154232.000,4239.7622,N,02322.3900,E,2,04,3.86,579.1,M,36.7,M,0000,0000*6B

$GPGSA,A,3,20,10,29,15,,,,,,,,,3.98,3.86,0.97*0F

$GPGSV,2,1,06,21,65,045,27,20,61,151,42,36,40,168,38,10,38,178,40*7B

$GPGSV,2,2,06,29,16,106,38,15,13,078,20*74

$GPRMC,154232.000,A,4239.7622,N,02322.3900,E,0.23,271.63,150519,,,D*67

$GPVTG,271.63,T,,M,0.23,N,0.43,K,D*3F

$GPGGA,154233.000,4239.7625,N,02322.3899,E,2,04,3.86,579.1,M,36.7,M,0000,0000*6C

$GPGSA,A,3,20,10,29,15,,,,,,,,,3.98,3.86,0.97*0F

$GPRMC,154233.000,A,4239.7625,N,02322.3899,E,0.33,311.99,150519,,,D*63

$GPVTG,311.99,T,,M,0.33,N,0.61,K,D*3C

$GPGGA,154234.000,4239.7624,N,02322.3900,E,2,04,3.86,579.0,M,36.7,M,0000,0000*6A

$GPGSA,A,3,20,10,29,15,,,,,,,,,3.98,3.86,0.97*0F

$GPRMC,154234.000,A,4239.7624,N,02322.3900,E,0.34,287.99,150519,,,D*6D

$GPVTG,287.99,T,,M,0.34,N,0.62,K,D*36

$GPGGA,154235.000,4239.7625,N,02322.3900,E,2,04,3.86,579.0,M,36.7,M,0000,0000*6A

$GPGSA,A,3,20,10,29,15,,,,,,,,,3.98,3.86,0.97*0F

$GPRMC,154235.000,A,4239.7625,N,02322.3900,E,0.38,303.70,150519,,,D*6B

$GPVTG,303.70,T,,M,0.38,N,0.71,K,D*32

$GPGGA,154236.000,4239.7625,N,02322.3900,E,2,04,3.86,579.0,M,36.7,M,0000,0000*69

$GPGSA,A,3,20,10,29,15,,,,,,,,,3.98,3.86,0.97*0F

$GPRMC,154236.000,A,4239.7625,N,02322.3900,E,0.34,305.51,150519,,,D*61

$GPVTG,305.51,T,,M,0.34,N,0.63,K,D*38

$GPGGA,154237.000,4239.7624,N,02322.3901,E,2,04,3.86,579.0,M,36.7,M,0000,0000*68

$GPGSA,A,3,20,10,29,15,,,,,,,,,3.98,3.86,0.97*0F

$GPGSV,2,1,06,21,65,045,18,20,61,151,34,36,40,168,35,10,38,178,39*75

$GPGSV,2,2,06,29,16,106,34,15,13,078,31*78

$GPRMC,154237.000,A,4239.7624,N,02322.3901,E,0.28,260.22,150519,,,D*6B

$GPVTG,260.22,T,,M,0.28,N,0.52,K,D*31

$GPGGA,154238.000,4239.7628,N,02322.3898,E,2,04,3.85,578.9,M,36.7,M,0000,0000*61

$GPGSA,A,3,20,10,29,15,,,,,,,,,3.97,3.85,0.97*03

$GPRMC,154238.000,A,4239.7628,N,02322.3898,E,0.33,330.77,150519,,,D*67

$GPVTG,330.77,T,,M,0.33,N,0.61,K,D*3F

$GPGGA,154239.000,4239.7629,N,02322.3899,E,2,04,3.85,578.9,M,36.7,M,0000,0000*60

$GPGSA,A,3,20,10,29,15,,,,,,,,,3.97,3.85,0.97*03

$GPRMC,154239.000,A,4239.7629,N,02322.3899,E,0.22,12.82,150519,,,D*5F

$GPVTG,12.82,T,,M,0.22,N,0.41,K,D*04

$GPGGA,154240.000,4239.7633,N,02322.3896,E,2,04,4.96,578.9,M,36.7,M,0000,0000*6F

$GPGSA,A,3,20,10,29,15,,,,,,,,,6.35,4.96,3.98*07

$GPRMC,154240.000,A,4239.7633,N,02322.3896,E,0.24,324.40,150519,,,D*6B

$GPVTG,324.40,T,,M,0.24,N,0.45,K,D*3E

$GPGGA,154241.000,4239.7631,N,02322.3897,E,2,04,3.85,578.8,M,36.7,M,0000,0000*69

$GPGSA,A,3,20,10,29,15,,,,,,,,,3.97,3.85,0.97*03

$GPRMC,154241.000,A,4239.7631,N,02322.3897,E,0.15,293.47,150519,,,D*61

$GPVTG,293.47,T,,M,0.15,N,0.29,K,D*3C

$GPGGA,154242.000,4239.7630,N,02322.3896,E,2,04,3.85,578.8,M,36.7,M,0000,0000*6A

$GPGSA,A,3,20,10,29,15,,,,,,,,,3.97,3.85,0.97*03

$GPGSV,2,1,06,21,65,045,17,20,61,151,37,36,40,168,35,10,38,178,31*71

$GPGSV,2,2,06,29,16,106,34,15,13,078,39*70

$GPRMC,154242.000,A,4239.7630,N,02322.3896,E,0.18,277.90,150519,,,D*6F

$GPVTG,277.90,T,,M,0.18,N,0.33,K,D*3A

$GPGGA,154243.000,4239.7627,N,02322.3897,E,2,04,3.84,578.8,M,36.7,M,0000,0000*6D

$GPGSA,A,3,20,10,29,15,,,,,,,,,3.96,3.84,0.97*03

$GPRMC,154243.000,A,4239.7627,N,02322.3897,E,0.27,245.02,150519,,,D*6F

$GPVTG,245.02,T,,M,0.27,N,0.50,K,D*39

$GPGGA,154244.000,4239.7623,N,02322.3899,E,2,04,3.84,578.8,M,36.7,M,0000,0000*60

$GPGSA,A,3,20,10,29,15,,,,,,,,,3.96,3.84,0.97*03

$GPRMC,154244.000,A,4239.7623,N,02322.3899,E,0.24,229.68,150519,,,D*67

$GPVTG,229.68,T,,M,0.24,N,0.45,K,D*38

$GPGGA,154245.000,4239.7615,N,02322.3904,E,2,04,3.84,578.9,M,36.7,M,0000,0000*60

$GPGSA,A,3,20,10,29,15,,,,,,,,,3.96,3.84,0.97*03

$GPRMC,154245.000,A,4239.7615,N,02322.3904,E,0.48,191.78,150519,,,D*6D

$GPVTG,191.78,T,,M,0.48,N,0.90,K,D*3B

$GPGGA,154246.000,4239.7612,N,02322.3907,E,2,04,3.84,578.9,M,36.7,M,0000,0000*67

$GPGSA,A,3,20,10,29,15,,,,,,,,,3.96,3.84,0.97*03

$GPRMC,154246.000,A,4239.7612,N,02322.3907,E,0.31,168.70,150519,,,D*6A

$GPVTG,168.70,T,,M,0.31,N,0.58,K,D*3F

$GPGGA,154247.000,4239.7608,N,02322.3910,E,2,04,3.84,578.9,M,36.7,M,0000,0000*6B

$GPGSA,A,3,20,10,29,15,,,,,,,,,3.96,3.84,0.97*03

$GPGSV,2,1,06,21,65,045,16,20,61,150,36,36,40,168,37,10,38,178,29*7B

$GPGSV,2,2,06,29,16,106,34,15,13,078,39*70

$GPRMC,154247.000,A,4239.7608,N,02322.3910,E,0.27,176.12,150519,,,D*6A

$GPVTG,176.12,T,,M,0.27,N,0.50,K,D*3B

$GPGGA,154248.000,4239.7607,N,02322.3911,E,2,04,3.84,579.0,M,36.7,M,0000,0000*62

$GPGSA,A,3,20,10,29,15,,,,,,,,,3.96,3.84,0.97*03

$GPRMC,154248.000,A,4239.7607,N,02322.3911,E,0.25,216.81,150519,,,D*66

$GPVTG,216.81,T,,M,0.25,N,0.47,K,D*30

$GPGGA,154249.000,4239.7605,N,02322.3915,E,2,04,3.84,579.0,M,36.7,M,0000,0000*65

$GPGSA,A,3,20,10,29,15,,,,,,,,,3.96,3.84,0.97*03

$GPRMC,154249.000,A,4239.7605,N,02322.3915,E,0.06,189.02,150519,,,D*6E

$GPVTG,189.02,T,,M,0.06,N,0.11,K,D*3C

$GPGGA,154250.000,4239.7603,N,02322.3916,E,2,04,3.83,579.1,M,36.7,M,0000,0000*6E

$GPGSA,A,3,20,10,29,15,,,,,,,,,3.95,3.83,0.97*07

$GPRMC,154250.000,A,4239.7603,N,02322.3916,E,0.10,256.72,150519,,,D*62

$GPVTG,256.72,T,,M,0.10,N,0.18,K,D*34

$GPGGA,154251.000,4239.7600,N,02322.3921,E,2,04,3.83,579.2,M,36.7,M,0000,0000*6B

$GPGSA,A,3,20,10,29,15,,,,,,,,,3.95,3.83,0.97*07

$GPRMC,154251.000,A,4239.7600,N,02322.3921,E,0.22,21.68,150519,,,D*5C

$GPVTG,21.68,T,,M,0.22,N,0.41,K,D*00

$GPGGA,154252.000,4239.7595,N,02322.3928,E,2,04,3.83,579.4,M,36.7,M,0000,0000*68

$GPGSA,A,3,20,10,29,15,,,,,,,,,3.95,3.83,0.97*07

$GPGSV,2,1,06,21,65,045,25,20,61,150,42,36,40,168,35,10,38,178,43*76

$GPGSV,2,2,06,29,16,106,42,15,13,078,40*7F

$GPRMC,154252.000,A,4239.7595,N,02322.3928,E,0.07,111.39,150519,,,D*68

$GPVTG,111.39,T,,M,0.07,N,0.13,K,D*36

$GPGGA,154253.000,4239.7595,N,02322.3929,E,2,04,3.83,579.5,M,36.7,M,0000,0000*69

$GPGSA,A,3,20,10,29,15,,,,,,,,,3.95,3.83,0.97*07

$GPRMC,154253.000,A,4239.7595,N,02322.3929,E,0.28,328.93,150519,,,D*6D

$GPVTG,328.93,T,,M,0.28,N,0.52,K,D*36

$GPGGA,154254.000,4239.7593,N,02322.3932,E,2,04,3.83,579.6,M,36.7,M,0000,0000*61

$GPGSA,A,3,20,10,29,15,,,,,,,,,3.95,3.83,0.97*07

$GPRMC,154254.000,A,4239.7593,N,02322.3932,E,0.35,317.60,150519,,,D*6A

$GPVTG,317.60,T,,M,0.35,N,0.65,K,D*3E

$GPGGA,154255.000,4239.7592,N,02322.3934,E,2,04,3.82,579.6,M,36.7,M,0000,0000*66

$GPGSA,A,3,20,10,29,15,,,,,,,,,3.94,3.82,0.97*07

$GPRMC,154255.000,A,4239.7592,N,02322.3934,E,0.41,318.45,150519,,,D*67

$GPVTG,318.45,T,,M,0.41,N,0.76,K,D*37

$GPGGA,154256.000,4239.7590,N,02322.3936,E,2,04,3.82,579.6,M,36.7,M,0000,0000*65

$GPGSA,A,3,20,10,29,15,,,,,,,,,3.94,3.82,0.97*07

$GPRMC,154256.000,A,4239.7590,N,02322.3936,E,0.45,302.94,150519,,,D*67

$GPVTG,302.94,T,,M,0.45,N,0.83,K,D*3E

$GPGGA,154257.000,4239.7589,N,02322.3939,E,2,04,3.82,579.7,M,36.7,M,0000,0000*62

$GPGSA,A,3,20,10,29,15,,,,,,,,,3.95,3.82,0.97*06

$GPGSV,2,1,06,21,65,045,26,20,61,150,38,36,40,168,37,10,38,178,37*79

$GPGSV,2,2,06,29,16,106,41,15,13,078,42*7E

$GPRMC,154257.000,A,4239.7589,N,02322.3939,E,0.35,311.99,150519,,,D*69

$GPVTG,311.99,T,,M,0.35,N,0.65,K,D*3E

$GPGGA,154258.000,4239.7590,N,02322.3939,E,2,04,3.82,579.7,M,36.7,M,0000,0000*65

$GPGSA,A,3,20,10,29,15,,,,,,,,,3.94,3.82,0.97*07

$GPRMC,154258.000,A,4239.7590,N,02322.3939,E,0.50,318.51,150519,,,D*60

$GPVTG,318.51,T,,M,0.50,N,0.92,K,D*38

$GPGGA,154259.000,4239.7590,N,02322.3940,E,2,04,3.82,579.7,M,36.7,M,0000,0000*6A

$GPGSA,A,3,20,10,29,15,,,,,,,,,3.94,3.82,0.97*07

$GPRMC,154259.000,A,4239.7590,N,02322.3940,E,0.40,323.89,150519,,,D*63

$GPVTG,323.89,T,,M,0.40,N,0.74,K,D*3C

$GPGGA,154300.000,4239.7591,N,02322.3940,E,2,04,3.82,579.7,M,36.7,M,0000,0000*66

$GPGSA,A,3,20,10,29,15,,,,,,,,,3.94,3.82,0.97*07

$GPRMC,154300.000,A,4239.7591,N,02322.3940,E,0.43,328.40,150519,,,D*62

$GPVTG,328.40,T,,M,0.43,N,0.79,K,D*3C

$GPGGA,154301.000,4239.7591,N,02322.3941,E,2,04,3.82,579.7,M,36.7,M,0000,0000*66

$GPGSA,A,3,20,10,29,15,,,,,,,,,3.94,3.82,0.97*07

$GPRMC,154301.000,A,4239.7591,N,02322.3941,E,0.39,331.88,150519,,,D*63

$GPVTG,331.88,T,,M,0.39,N,0.72,K,D*36

$GPGGA,154302.000,4239.7588,N,02322.3941,E,2,04,3.81,579.6,M,36.7,M,0000,0000*6F

$GPGSA,A,3,20,10,29,15,,,,,,,,,3.94,3.81,0.97*04

$GPGSV,2,1,06,21,65,045,21,20,61,150,38,36,40,168,31,10,38,178,35*7A

$GPGSV,2,2,06,29,16,106,32,15,13,078,36*79

$GPRMC,154302.000,A,4239.7588,N,02322.3941,E,0.37,271.26,150519,,,D*67

$GPVTG,271.26,T,,M,0.37,N,0.68,K,D*32

$GPGGA,154303.000,4239.7586,N,02322.3942,E,2,04,3.81,579.5,M,36.7,M,0000,0000*60

$GPGSA,A,3,20,10,29,15,,,,,,,,,3.93,3.81,0.97*03

$GPRMC,154303.000,A,4239.7586,N,02322.3942,E,0.34,261.92,150519,,,D*66

$GPVTG,261.92,T,,M,0.34,N,0.63,K,D*34

$GPGGA,154304.000,4239.7586,N,02322.3943,E,2,04,3.81,579.5,M,36.7,M,0000,0000*66

$GPGSA,A,3,20,10,29,15,,,,,,,,,3.93,3.81,0.97*03

$GPRMC,154304.000,A,4239.7586,N,02322.3943,E,0.24,279.46,150519,,,D*61

$GPVTG,279.46,T,,M,0.24,N,0.45,K,D*31

$GPGGA,154305.000,4239.7585,N,02322.3946,E,2,04,3.81,579.5,M,36.7,M,0000,0000*61

$GPGSA,A,3,20,10,29,15,,,,,,,,,3.93,3.81,0.97*03

$GPRMC,154305.000,A,4239.7585,N,02322.3946,E,0.18,325.26,150519,,,D*67

$GPVTG,325.26,T,,M,0.18,N,0.34,K,D*36

$GPGGA,154306.000,4239.7587,N,02322.3946,E,2,04,3.81,579.6,M,36.7,M,0000,0000*63

$GPGSA,A,3,20,10,29,15,,,,,,,,,3.93,3.81,0.97*03

$GPRMC,154306.000,A,4239.7587,N,02322.3946,E,0.43,349.73,150519,,,D*62

$GPVTG,349.73,T,,M,0.43,N,0.79,K,D*3B

$GPGGA,154307.000,4239.7586,N,02322.3947,E,2,04,4.94,579.6,M,36.7,M,0000,0000*61

$GPGSA,A,3,20,10,29,15,,,,,,,,,6.34,4.94,3.99*05

$GPGSV,2,1,06,21,65,045,15,20,61,150,30,36,40,168,39,10,38,178,40*7F

$GPGSV,2,2,06,29,16,106,33,15,13,078,36*78

$GPRMC,154307.000,A,4239.7586,N,02322.3947,E,0.36,346.59,150519,,,D*66

$GPVTG,346.59,T,,M,0.36,N,0.67,K,D*31

$GPGGA,154308.000,4239.7584,N,02322.3950,E,2,04,4.94,579.6,M,36.7,M,0000,0000*6A

$GPGSA,A,3,20,10,29,15,,,,,,,,,6.35,4.94,3.99*04

$GPRMC,154308.000,A,4239.7584,N,02322.3950,E,0.19,347.29,150519,,,D*66

$GPVTG,347.29,T,,M,0.19,N,0.35,K,D*3D

$GPGGA,154309.000,4239.7582,N,02322.3954,E,2,04,4.94,579.6,M,36.7,M,0000,0000*69

$GPGSA,A,3,20,10,29,15,,,,,,,,,6.34,4.94,3.99*05

$GPRMC,154309.000,A,4239.7582,N,02322.3954,E,0.19,67.66,150519,,,D*5F

$GPVTG,67.66,T,,M,0.19,N,0.36,K,D*04

$GPGGA,154310.000,4239.7582,N,02322.3955,E,2,04,3.80,579.6,M,36.7,M,0000,0000*62

$GPGSA,A,3,20,10,29,15,,,,,,,,,3.93,3.80,0.97*02

$GPRMC,154310.000,A,4239.7582,N,02322.3955,E,0.19,77.22,150519,,,D*57

$GPVTG,77.22,T,,M,0.19,N,0.35,K,D*06

$GPGGA,154311.000,4239.7582,N,02322.3956,E,2,04,3.80,579.6,M,36.7,M,0000,0000*60

$GPGSA,A,3,20,10,29,15,,,,,,,,,3.92,3.80,0.97*03

$GPRMC,154311.000,A,4239.7582,N,02322.3956,E,0.45,135.34,150519,,,D*6C

$GPVTG,135.34,T,,M,0.45,N,0.83,K,D*32

$GPGGA,154312.000,4239.7581,N,02322.3957,E,2,04,3.80,579.6,M,36.7,M,0000,0000*61

$GPGSA,A,3,20,10,29,15,,,,,,,,,3.92,3.80,0.97*03

$GPGSV,2,1,06,21,65,045,16,20,61,150,35,36,40,168,23,10,38,178,30*75

$GPGSV,2,2,06,29,16,106,39,15,13,078,34*70

$GPRMC,154312.000,A,4239.7581,N,02322.3957,E,0.48,140.38,150519,,,D*6E

$GPVTG,140.38,T,,M,0.48,N,0.90,K,D*33

$GPGGA,154313.000,4239.7580,N,02322.3958,E,2,04,3.79,579.6,M,36.7,M,0000,0000*68

$GPGSA,A,3,20,10,29,15,,,,,,,,,3.92,3.79,0.97*05

$GPRMC,154313.000,A,4239.7580,N,02322.3958,E,0.73,144.79,150519,,,D*68

$GPVTG,144.79,T,,M,0.73,N,1.36,K,D*37

$GPGGA,154314.000,4239.7579,N,02322.3958,E,2,04,3.80,579.7,M,36.7,M,0000,0000*6E

$GPGSA,A,3,20,10,29,15,,,,,,,,,3.92,3.80,0.97*03

$GPRMC,154314.000,A,4239.7579,N,02322.3958,E,0.61,137.52,150519,,,D*67

$GPVTG,137.52,T,,M,0.61,N,1.14,K,D*39

$GPGGA,154315.000,4239.7575,N,02322.3961,E,2,04,3.79,579.8,M,36.7,M,0000,0000*60

$GPGSA,A,3,20,10,29,15,,,,,,,,,3.92,3.79,0.97*05

$GPRMC,154315.000,A,4239.7575,N,02322.3961,E,0.68,137.24,150519,,,D*68

$GPVTG,137.24,T,,M,0.68,N,1.26,K,D*30

$GPGGA,154316.000,4239.7576,N,02322.3958,E,2,04,3.79,579.8,M,36.7,M,0000,0000*6A

$GPGSA,A,3,20,10,29,15,,,,,,,,,3.92,3.79,0.97*05

$GPRMC,154316.000,A,4239.7576,N,02322.3958,E,0.37,139.37,150519,,,D*64

$GPVTG,139.37,T,,M,0.37,N,0.69,K,D*3C

$GPGGA,154317.000,4239.7574,N,02322.3959,E,2,04,3.79,579.9,M,36.7,M,0000,0000*69

$GPGSA,A,3,20,10,29,15,,,,,,,,,3.91,3.79,0.97*06

$GPGSV,2,1,06,21,65,045,17,20,61,150,35,36,40,168,27,10,38,178,29*78

$GPGSV,2,2,06,29,16,106,40,15,13,078,40*7D

$GPRMC,154317.000,A,4239.7574,N,02322.3959,E,0.31,142.05,150519,,,D*6D

$GPVTG,142.05,T,,M,0.31,N,0.57,K,D*3A

$GPGGA,154318.000,4239.7573,N,02322.3961,E,2,04,3.79,580.0,M,36.7,M,0000,0000*65

$GPGSA,A,3,20,10,29,15,,,,,,,,,3.91,3.79,0.97*06

$GPRMC,154318.000,A,4239.7573,N,02322.3961,E,0.26,115.94,150519,,,D*62

$GPVTG,115.94,T,,M,0.26,N,0.48,K,D*38

$GPGGA,154319.000,4239.7572,N,02322.3963,E,2,04,3.79,580.1,M,36.7,M,0000,0000*66

$GPGSA,A,3,20,10,29,15,,,,,,,,,3.91,3.79,0.97*06

$GPRMC,154319.000,A,4239.7572,N,02322.3963,E,0.21,83.64,150519,,,D*56

$GPVTG,83.64,T,,M,0.21,N,0.38,K,D*09

$GPGGA,154320.000,4239.7572,N,02322.3964,E,2,04,3.79,580.1,M,36.7,M,0000,0000*6B

$GPGSA,A,3,20,10,29,15,,,,,,,,,3.91,3.79,0.97*06

$GPRMC,154320.000,A,4239.7572,N,02322.3964,E,0.12,118.30,150519,,,D*69

$GPVTG,118.30,T,,M,0.12,N,0.23,K,D*31

$GPGGA,154321.000,4239.7572,N,02322.3964,E,2,04,3.79,580.1,M,36.7,M,0000,0000*6A

$GPGSA,A,3,20,10,29,15,,,,,,,,,3.91,3.79,0.97*06

$GPRMC,154321.000,A,4239.7572,N,02322.3964,E,0.08,76.38,150519,,,D*52

$GPVTG,76.38,T,,M,0.08,N,0.15,K,D*0E

$GPGGA,154322.000,4239.7572,N,02322.3964,E,2,04,3.78,580.1,M,36.7,M,0000,0000*68

$GPGSA,A,3,20,10,29,15,,,,,,,,,3.91,3.78,0.97*07

$GPGSV,2,1,06,21,65,045,16,20,61,150,34,36,40,168,28,10,38,178,29*77

$GPGSV,2,2,06,29,16,106,40,15,13,077,40*72

$GPRMC,154322.000,A,4239.7572,N,02322.3964,E,0.05,138.07,150519,,,D*6B

$GPVTG,138.07,T,,M,0.05,N,0.09,K,D*39

$GPGGA,154323.000,4239.7572,N,02322.3965,E,2,04,3.78,580.1,M,36.7,M,0000,0000*68

$GPGSA,A,3,20,10,29,15,,,,,,,,,3.90,3.78,0.97*06

$GPRMC,154323.000,A,4239.7572,N,02322.3965,E,0.18,99.98,150519,,,D*5B

$GPVTG,99.98,T,,M,0.18,N,0.34,K,D*07

$GPGGA,154324.000,4239.7572,N,02322.3965,E,2,04,3.78,580.1,M,36.7,M,0000,0000*6F

$GPGSA,A,3,20,10,29,15,,,,,,,,,3.90,3.78,0.97*06

$GPRMC,154324.000,A,4239.7572,N,02322.3965,E,0.37,65.38,150519,,,D*58

$GPVTG,65.38,T,,M,0.37,N,0.69,K,D*0B

$GPGGA,154325.000,4239.7572,N,02322.3967,E,2,04,3.78,580.1,M,36.7,M,0000,0000*6C

$GPGSA,A,3,20,10,29,15,,,,,,,,,3.90,3.78,0.97*06

$GPRMC,154325.000,A,4239.7572,N,02322.3967,E,0.19,25.48,150519,,,D*54

$GPVTG,25.48,T,,M,0.19,N,0.34,K,D*0C

$GPGGA,154326.000,4239.7573,N,02322.3967,E,2,04,3.78,580.1,M,36.7,M,0000,0000*6E

$GPGSA,A,3,20,10,29,15,,,,,,,,,3.90,3.78,0.97*06

$GPRMC,154326.000,A,4239.7573,N,02322.3967,E,0.35,344.44,150519,,,D*60

$GPVTG,344.44,T,,M,0.35,N,0.65,K,D*3E

$GPGGA,154327.000,4239.7574,N,02322.3967,E,2,04,3.77,580.1,M,36.7,M,0000,0000*67

$GPGSA,A,3,20,10,29,15,,,,,,,,,3.90,3.77,0.97*09

$GPGSV,2,1,06,21,65,045,14,20,61,150,34,36,40,168,29,10,38,178,30*7C

$GPGSV,2,2,06,29,16,106,41,15,13,077,41*72

$GPRMC,154327.000,A,4239.7574,N,02322.3967,E,0.13,9.13,150519,,,D*6A

$GPVTG,9.13,T,,M,0.13,N,0.24,K,D*37

$GPGGA,154328.000,4239.7574,N,02322.3967,E,2,04,4.92,580.1,M,36.7,M,0000,0000*64

$GPGSA,A,3,20,10,29,15,,,,,,,,,6.34,4.92,4.00*04

$GPRMC,154328.000,A,4239.7574,N,02322.3967,E,0.10,11.91,150519,,,D*55

$GPVTG,11.91,T,,M,0.10,N,0.19,K,D*09

$GPGGA,154329.000,4239.7574,N,02322.3967,E,2,04,4.92,580.2,M,36.7,M,0000,0000*66

$GPGSA,A,3,20,10,29,15,,,,,,,,,6.34,4.92,4.00*04

$GPRMC,154329.000,A,4239.7574,N,02322.3967,E,0.11,123.29,150519,,,D*66

$GPVTG,123.29,T,,M,0.11,N,0.20,K,D*31

$GPGGA,154330.000,4239.7574,N,02322.3967,E,2,04,3.77,580.2,M,36.7,M,0000,0000*62

$GPGSA,A,3,20,10,29,15,,,,,,,,,3.89,3.77,0.97*01

$GPRMC,154330.000,A,4239.7574,N,02322.3967,E,0.21,9.48,150519,,,D*63

$GPVTG,9.48,T,,M,0.21,N,0.38,K,D*35

$GPGGA,154331.000,4239.7575,N,02322.3968,E,2,04,4.92,580.2,M,36.7,M,0000,0000*61

$GPGSA,A,3,20,10,29,15,,,,,,,,,6.34,4.92,4.00*04

$GPRMC,154331.000,A,4239.7575,N,02322.3968,E,0.15,57.45,150519,,,D*5D

$GPVTG,57.45,T,,M,0.15,N,0.28,K,D*05

$GPGGA,154332.000,4239.7575,N,02322.3968,E,2,04,3.77,580.2,M,36.7,M,0000,0000*6E

$GPGSA,A,3,20,10,29,15,,,,,,,,,3.89,3.77,0.97*01

$GPGSV,2,1,06,21,65,045,14,20,61,150,34,36,40,168,29,10,38,178,30*7C

$GPGSV,2,2,06,29,15,106,42,15,13,077,42*71

$GPRMC,154332.000,A,4239.7575,N,02322.3968,E,0.21,33.45,150519,,,D*5B

$GPVTG,33.45,T,,M,0.21,N,0.39,K,D*00

$GPGGA,154333.000,4239.7575,N,02322.3969,E,2,04,3.76,580.2,M,36.7,M,0000,0000*6F

$GPGSA,A,3,20,10,29,15,,,,,,,,,3.89,3.76,0.97*00

$GPRMC,154333.000,A,4239.7575,N,02322.3969,E,0.20,16.34,150519,,,D*5B

$GPVTG,16.34,T,,M,0.20,N,0.37,K,D*0E

$GPGGA,154334.000,4239.7576,N,02322.3969,E,2,04,3.76,580.2,M,36.7,M,0000,0000*6B

$GPGSA,A,3,20,10,29,15,,,,,,,,,3.89,3.76,0.97*00

$GPRMC,154334.000,A,4239.7576,N,02322.3969,E,0.15,86.65,150519,,,D*54

$GPVTG,86.65,T,,M,0.15,N,0.27,K,D*04

$GPGGA,154335.000,4239.7576,N,02322.3969,E,2,04,3.76,580.2,M,36.7,M,0000,0000*6A

$GPGSA,A,3,20,10,29,15,,,,,,,,,3.88,3.76,0.97*01

$GPRMC,154335.000,A,4239.7576,N,02322.3969,E,0.19,3.15,150519,,,D*63

$GPVTG,3.15,T,,M,0.19,N,0.36,K,D*32

$GPGGA,154336.000,4239.7577,N,02322.3969,E,2,04,4.92,580.2,M,36.7,M,0000,0000*65

$GPGSA,A,3,20,10,29,15,,,,,,,,,6.34,4.92,4.00*04

$GPRMC,154336.000,A,4239.7577,N,02322.3969,E,0.14,339.48,150519,,,D*6E

$GPVTG,339.48,T,,M,0.14,N,0.25,K,D*3F

$GPGGA,154337.000,4239.7577,N,02322.3969,E,2,04,3.76,580.2,M,36.7,M,0000,0000*69

$GPGSA,A,3,20,10,29,15,,,,,,,,,3.88,3.76,0.97*01

$GPGSV,2,1,07,21,65,045,13,20,61,150,34,26,57,221,,10,38,178,30*78

$GPGSV,2,2,07,29,15,106,42,15,13,077,42,38,,,*7B

$GPRMC,154337.000,A,4239.7577,N,02322.3969,E,0.21,357.40,150519,,,D*69

$GPVTG,357.40,T,,M,0.21,N,0.40,K,D*3A

$GPGGA,154338.000,4239.7578,N,02322.3969,E,2,04,4.92,580.2,M,36.7,M,0000,0000*64

$GPGSA,A,3,20,10,29,15,,,,,,,,,6.34,4.92,4.00*04

$GPRMC,154338.000,A,4239.7578,N,02322.3969,E,0.23,2.97,150519,,,D*62

$GPVTG,2.97,T,,M,0.23,N,0.42,K,D*33

$GPGGA,154339.000,4239.7578,N,02322.3969,E,2,04,4.92,580.2,M,36.7,M,0000,0000*65

$GPGSA,A,3,20,10,29,15,,,,,,,,,6.34,4.92,4.00*04

$GPRMC,154339.000,A,4239.7578,N,02322.3969,E,0.17,354.59,150519,,,D*66

$GPVTG,354.59,T,,M,0.17,N,0.31,K,D*32

$GPGGA,154340.000,4239.7579,N,02322.3969,E,2,04,4.92,580.2,M,36.7,M,0000,0000*6A

$GPGSA,A,3,20,10,29,15,,,,,,,,,6.34,4.92,4.00*04

$GPRMC,154340.000,A,4239.7579,N,02322.3969,E,0.03,124.03,150519,,,D*66

$GPVTG,124.03,T,,M,0.03,N,0.06,K,D*39

$GPGGA,154341.000,4239.7579,N,02322.3970,E,2,04,3.75,580.2,M,36.7,M,0000,0000*6D

$GPGSA,A,3,20,10,29,15,,,,,,,,,3.88,3.75,0.97*02

$GPRMC,154341.000,A,4239.7579,N,02322.3970,E,0.15,167.29,150519,,,D*67

$GPVTG,167.29,T,,M,0.15,N,0.27,K,D*32

$GPGGA,154342.000,4239.7578,N,02322.3970,E,2,04,3.75,580.2,M,36.7,M,0000,0000*6F

$GPGSA,A,3,20,10,29,15,,,,,,,,,3.87,3.75,0.97*0D

$GPGSV,2,1,07,21,65,045,12,20,61,150,33,26,57,221,,10,38,178,31*7F

$GPGSV,2,2,07,29,15,106,41,15,13,077,42,41,,,*76

$GPRMC,154342.000,A,4239.7578,N,02322.3970,E,0.11,59.67,150519,,,D*57

$GPVTG,59.67,T,,M,0.11,N,0.20,K,D*07

$GPGGA,154343.000,4239.7578,N,02322.3970,E,2,04,3.75,580.3,M,36.7,M,0000,0000*6F

$GPGSA,A,3,20,10,29,15,,,,,,,,,3.87,3.75,0.97*0D

$GPRMC,154343.000,A,4239.7578,N,02322.3970,E,0.07,28.18,150519,,,D*5F

$GPVTG,28.18,T,,M,0.07,N,0.13,K,D*0E

$GPGGA,154344.000,4239.7578,N,02322.3970,E,2,04,3.75,580.3,M,36.7,M,0000,0000*68

$GPGSA,A,3,20,10,29,15,,,,,,,,,3.87,3.75,0.97*0D

$GPRMC,154344.000,A,4239.7578,N,02322.3970,E,0.15,2.87,150519,,,D*65

$GPVTG,2.87,T,,M,0.15,N,0.27,K,D*34

$GPGGA,154345.000,4239.7579,N,02322.3971,E,2,04,4.92,580.3,M,36.7,M,0000,0000*67

$GPGSA,A,3,20,10,29,15,,,,,,,,,6.34,4.92,4.01*05

$GPRMC,154345.000,A,4239.7579,N,02322.3971,E,0.10,120.05,150519,,,D*6A

$GPVTG,120.05,T,,M,0.10,N,0.19,K,D*37

$GPGGA,154346.000,4239.7579,N,02322.3971,E,2,04,3.75,580.3,M,36.7,M,0000,0000*6A

$GPGSA,A,3,20,10,29,15,,,,,,,,,3.87,3.75,0.97*0D

$GPRMC,154346.000,A,4239.7579,N,02322.3971,E,0.16,126.46,150519,,,D*6E

$GPVTG,126.46,T,,M,0.16,N,0.30,K,D*3B

$GPGGA,154347.000,4239.7578,N,02322.3972,E,2,04,3.74,580.3,M,36.7,M,0000,0000*68

$GPGSA,A,3,20,10,29,15,,,,,,,,,3.87,3.74,0.97*0C

$GPGSV,2,1,07,21,65,045,,20,61,150,31,26,57,221,,10,38,178,31*7E

$GPGSV,2,2,07,29,15,106,40,15,13,077,43,43,,,*74

$GPRMC,154347.000,A,4239.7578,N,02322.3972,E,0.18,105.94,150519,,,D*6D

$GPVTG,105.94,T,,M,0.18,N,0.33,K,D*38

$GPGGA,154348.000,4239.7578,N,02322.3972,E,2,04,3.74,580.3,M,36.7,M,0000,0000*67

$GPGSA,A,3,20,10,29,15,,,,,,,,,3.87,3.74,0.97*0C

$GPRMC,154348.000,A,4239.7578,N,02322.3972,E,0.24,104.60,150519,,,D*67

$GPVTG,104.60,T,,M,0.24,N,0.45,K,D*3C

$GPGGA,154349.000,4239.7578,N,02322.3973,E,2,04,3.74,580.3,M,36.7,M,0000,0000*67

$GPGSA,A,3,20,10,29,15,,,,,,,,,3.86,3.74,0.97*0D

$GPRMC,154349.000,A,4239.7578,N,02322.3973,E,0.32,111.34,150519,,,D*65

$GPVTG,111.34,T,,M,0.32,N,0.59,K,D*33

$GPGGA,154350.000,4239.7578,N,02322.3975,E,2,04,3.74,580.3,M,36.7,M,0000,0000*69

$GPGSA,A,3,20,10,29,15,,,,,,,,,3.86,3.74,0.97*0D

$GPRMC,154350.000,A,4239.7578,N,02322.3975,E,0.31,55.29,150519,,,D*55

$GPVTG,55.29,T,,M,0.31,N,0.58,K,D*0C

$GPGGA,154351.000,4239.7578,N,02322.3976,E,2,04,3.74,580.3,M,36.7,M,0000,0000*6B

$GPGSA,A,3,20,10,29,15,,,,,,,,,3.86,3.74,0.97*0D

$GPRMC,154351.000,A,4239.7578,N,02322.3976,E,0.27,78.99,150519,,,D*54

$GPVTG,78.99,T,,M,0.27,N,0.50,K,D*07

$GPGGA,154352.000,4239.7578,N,02322.3977,E,2,04,3.74,580.3,M,36.7,M,0000,0000*69

$GPGSA,A,3,20,10,29,15,,,,,,,,,3.86,3.74,0.97*0D

$GPGSV,2,1,07,21,65,045,,20,61,150,30,26,57,221,,10,39,178,31*7E

$GPGSV,2,2,07,29,15,106,40,15,13,077,43,45,,,*72

$GPRMC,154352.000,A,4239.7578,N,02322.3977,E,0.33,111.77,150519,,,D*6D

$GPVTG,111.77,T,,M,0.33,N,0.61,K,D*3E

$GPGGA,154353.000,4239.7578,N,02322.3978,E,2,04,3.73,580.3,M,36.7,M,0000,0000*60

$GPGSA,A,3,20,10,29,15,,,,,,,,,3.86,3.73,0.97*0A

$GPRMC,154353.000,A,4239.7578,N,02322.3978,E,0.21,93.81,150519,,,D*52

$GPVTG,93.81,T,,M,0.21,N,0.38,K,D*03

$GPGGA,154354.000,4239.7578,N,02322.3979,E,2,04,3.73,580.3,M,36.7,M,0000,0000*66

$GPGSA,A,3,20,10,29,15,,,,,,,,,3.86,3.73,0.97*0A

$GPRMC,154354.000,A,4239.7578,N,02322.3979,E,0.11,74.13,150519,,,D*55

$GPVTG,74.13,T,,M,0.11,N,0.21,K,D*0A

$GPGGA,154355.000,4239.7578,N,02322.3979,E,2,04,3.73,580.3,M,36.7,M,0000,0000*67

$GPGSA,A,3,20,10,29,15,,,,,,,,,3.86,3.73,0.97*0A

$GPRMC,154355.000,A,4239.7578,N,02322.3979,E,0.17,60.63,150519,,,D*50

$GPVTG,60.63,T,,M,0.17,N,0.32,K,D*0C

$GPGGA,154356.000,4239.7578,N,02322.3980,E,2,04,3.73,580.3,M,36.7,M,0000,0000*62

$GPGSA,A,3,20,10,29,15,,,,,,,,,3.85,3.73,0.97*09

$GPRMC,154356.000,A,4239.7578,N,02322.3980,E,0.23,32.33,150519,,,D*50

$GPVTG,32.33,T,,M,0.23,N,0.42,K,D*0E

$GPGGA,154357.000,4239.7579,N,02322.3980,E,2,04,3.73,580.3,M,36.7,M,0000,0000*62

$GPGSA,A,3,20,10,29,15,,,,,,,,,3.85,3.73,0.97*09

$GPGSV,2,1,07,21,65,045,,20,61,150,29,26,57,221,,10,39,178,30*77

$GPGSV,2,2,07,29,15,106,40,15,13,077,43,45,,,*72

$GPRMC,154357.000,A,4239.7579,N,02322.3980,E,0.23,59.72,150519,,,D*58

$GPVTG,59.72,T,,M,0.23,N,0.42,K,D*06

$GPGGA,154358.000,4239.7579,N,02322.3981,E,2,04,3.73,580.3,M,36.7,M,0000,0000*6C

$GPGSA,A,3,20,10,29,15,,,,,,,,,3.85,3.73,0.97*09

$GPRMC,154358.000,A,4239.7579,N,02322.3981,E,0.39,68.31,150519,,,D*58

$GPVTG,68.31,T,,M,0.39,N,0.73,K,D*0A

$GPGGA,154359.000,4239.7579,N,02322.3983,E,2,04,3.72,580.3,M,36.7,M,0000,0000*6E

$GPGSA,A,3,20,10,29,15,,,,,,,,,3.85,3.72,0.97*08

$GPRMC,154359.000,A,4239.7579,N,02322.3983,E,0.47,79.10,150519,,,D*51

$GPVTG,79.10,T,,M,0.47,N,0.88,K,D*04

$GPGGA,154400.000,4239.7580,N,02322.3984,E,2,04,3.72,580.3,M,36.7,M,0000,0000*64

$GPGSA,A,3,20,10,29,15,,,,,,,,,3.85,3.72,0.97*08

$GPRMC,154400.000,A,4239.7580,N,02322.3984,E,0.36,76.98,150519,,,D*52

$GPVTG,76.98,T,,M,0.36,N,0.67,K,D*0C

$GPGGA,154401.000,4239.7580,N,02322.3986,E,2,04,3.72,580.3,M,36.7,M,0000,0000*67

$GPGSA,A,3,20,10,29,15,,,,,,,,,3.85,3.72,0.97*08

$GPRMC,154401.000,A,4239.7580,N,02322.3986,E,0.23,109.90,150519,,,D*64

$GPVTG,109.90,T,,M,0.23,N,0.43,K,D*3F

$GPGGA,154402.000,4239.7580,N,02322.3987,E,2,04,3.72,580.4,M,36.7,M,0000,0000*62

$GPGSA,A,3,20,10,29,15,,,,,,,,,3.85,3.72,0.97*08

$GPGSV,2,1,07,21,64,045,,20,62,150,29,26,57,221,,10,39,178,30*75

$GPGSV,2,2,07,29,15,106,40,15,13,077,43,46,,,*71

$GPRMC,154402.000,A,4239.7580,N,02322.3987,E,0.31,128.39,150519,,,D*65

$GPVTG,128.39,T,,M,0.31,N,0.57,K,D*39

$GPGGA,154403.000,4239.7579,N,02322.3987,E,2,04,3.72,580.4,M,36.7,M,0000,0000*65

$GPGSA,A,3,20,10,29,15,,,,,,,,,3.85,3.72,0.97*08

$GPRMC,154403.000,A,4239.7579,N,02322.3987,E,0.12,60.75,150519,,,D*56

$GPVTG,60.75,T,,M,0.12,N,0.22,K,D*0F

$GPGGA,154404.000,4239.7579,N,02322.3988,E,2,04,3.72,580.4,M,36.7,M,0000,0000*6D

$GPGSA,A,3,20,10,29,15,,,,,,,,,3.84,3.72,0.97*09

$GPRMC,154404.000,A,4239.7579,N,02322.3988,E,0.11,23.72,150519,,,D*5D

$GPVTG,23.72,T,,M,0.11,N,0.20,K,D*0E

$GPGGA,154405.000,4239.7580,N,02322.3988,E,2,04,3.72,580.4,M,36.7,M,0000,0000*6A

$GPGSA,A,3,20,10,29,15,,,,,,,,,3.84,3.72,0.97*09

$GPRMC,154405.000,A,4239.7580,N,02322.3988,E,0.13,15.32,150519,,,D*59

$GPVTG,15.32,T,,M,0.13,N,0.24,K,D*09

$GPGGA,154406.000,4239.7580,N,02322.3988,E,2,04,3.72,580.4,M,36.7,M,0000,0000*69

$GPGSA,A,3,20,10,29,15,,,,,,,,,3.84,3.72,0.97*09

$GPRMC,154406.000,A,4239.7580,N,02322.3988,E,0.12,82.15,150519,,,D*50

$GPVTG,82.15,T,,M,0.12,N,0.22,K,D*05

$GPGGA,154407.000,4239.7580,N,02322.3989,E,2,04,3.71,580.4,M,36.7,M,0000,0000*6A

$GPGSA,A,3,20,10,29,15,,,,,,,,,3.84,3.71,0.97*0A

$GPGSV,2,1,08,21,64,045,,20,62,150,29,26,57,221,,10,39,178,30*7A

$GPGSV,2,2,08,27,34,304,,29,15,106,40,15,13,077,43,47,,,*4A

$GPRMC,154407.000,A,4239.7580,N,02322.3989,E,0.04,347.14,150519,,,D*6C

$GPVTG,347.14,T,,M,0.04,N,0.08,K,D*31

$GPGGA,154408.000,4239.7580,N,02322.3989,E,2,04,4.91,580.4,M,36.7,M,0000,0000*6C

$GPGSA,A,3,20,10,29,15,,,,,,,,,6.34,4.91,4.02*05

$GPRMC,154408.000,A,4239.7580,N,02322.3989,E,0.07,158.41,150519,,,D*6C

$GPVTG,158.41,T,,M,0.07,N,0.13,K,D*34

$GPGGA,154409.000,4239.7580,N,02322.3989,E,2,04,3.71,580.4,M,36.7,M,0000,0000*64

$GPGSA,A,3,20,10,29,15,,,,,,,,,3.83,3.71,0.97*0D

$GPRMC,154409.000,A,4239.7580,N,02322.3989,E,0.12,174.07,150519,,,D*65

$GPVTG,174.07,T,,M,0.12,N,0.22,K,D*3E

$GPGGA,154410.000,4239.7580,N,02322.3989,E,2,04,3.71,580.4,M,36.7,M,0000,0000*6C

$GPGSA,A,3,20,10,29,15,,,,,,,,,3.83,3.71,0.97*0D

$GPRMC,154410.000,A,4239.7580,N,02322.3989,E,0.13,146.84,150519,,,D*66

$GPVTG,146.84,T,,M,0.13,N,0.24,K,D*33

$GPGGA,154411.000,4239.7579,N,02322.3989,E,2,04,3.71,580.4,M,36.7,M,0000,0000*6B

$GPGSA,A,3,20,10,29,15,,,,,,,,,3.83,3.71,0.97*0D

$GPRMC,154411.000,A,4239.7579,N,02322.3989,E,0.07,158.77,150519,,,D*67

$GPVTG,158.77,T,,M,0.07,N,0.13,K,D*31

$GPGGA,154412.000,4239.7579,N,02322.3989,E,2,04,3.71,580.4,M,36.7,M,0000,0000*68

$GPGSA,A,3,20,10,29,15,,,,,,,,,3.83,3.71,0.97*0D

$GPGSV,2,1,08,21,64,045,13,20,62,150,28,26,57,221,,10,39,178,29*71

$GPGSV,2,2,08,27,34,304,,29,15,106,39,15,13,077,42,49,,,*4B

$GPRMC,154412.000,A,4239.7579,N,02322.3989,E,0.15,174.04,150519,,,D*6D

$GPVTG,174.04,T,,M,0.15,N,0.28,K,D*30

$GPGGA,154413.000,4239.7578,N,02322.3990,E,2,04,3.70,580.4,M,36.7,M,0000,0000*61

$GPGSA,A,3,20,10,29,15,,,,,,,,,3.83,3.70,0.97*0C

$GPRMC,154413.000,A,4239.7578,N,02322.3990,E,0.42,140.91,150519,,,D*6C

$GPVTG,140.91,T,,M,0.42,N,0.78,K,D*3C

$GPGGA,154414.000,4239.7577,N,02322.3991,E,2,04,3.70,580.4,M,36.7,M,0000,0000*68

$GPGSA,A,3,20,10,29,15,,,,,,,,,3.83,3.70,0.97*0C

$GPRMC,154414.000,A,4239.7577,N,02322.3991,E,0.46,137.68,150519,,,D*67

$GPVTG,137.68,T,,M,0.46,N,0.85,K,D*3C

$GPGGA,154415.000,4239.7576,N,02322.3992,E,2,04,3.70,580.4,M,36.7,M,0000,0000*6B

$GPGSA,A,3,20,10,29,15,,,,,,,,,3.83,3.70,0.97*0C

$GPRMC,154415.000,A,4239.7576,N,02322.3992,E,0.33,146.73,150519,,,D*6A

$GPVTG,146.73,T,,M,0.33,N,0.61,K,D*38

$GPGGA,154416.000,4239.7576,N,02322.3993,E,2,04,3.70,580.4,M,36.7,M,0000,0000*69

$GPGSA,A,3,20,10,29,15,,,,,,,,,3.82,3.70,0.97*0D

$GPRMC,154416.000,A,4239.7576,N,02322.3993,E,0.40,156.91,150519,,,D*61

$GPVTG,156.91,T,,M,0.40,N,0.74,K,D*35

$GPGGA,154417.000,4239.7575,N,02322.3993,E,2,04,3.70,580.4,M,36.7,M,0000,0000*6B

$GPGSA,A,3,20,10,29,15,,,,,,,,,3.82,3.70,0.97*0D

$GPGSV,2,1,08,21,64,045,12,20,62,150,29,26,57,221,,10,39,178,28*70

$GPGSV,2,2,08,27,34,304,22,29,15,106,39,15,13,077,43,49,,,27*4F

$GPRMC,154417.000,A,4239.7575,N,02322.3993,E,0.24,121.10,150519,,,D*68

$GPVTG,121.10,T,,M,0.24,N,0.45,K,D*3C

$GPGGA,154418.000,4239.7574,N,02322.3994,E,2,04,3.69,580.4,M,36.7,M,0000,0000*6A

$GPGSA,A,3,20,10,29,15,,,,,,,,,3.82,3.69,0.97*05

$GPRMC,154418.000,A,4239.7574,N,02322.3994,E,0.26,92.24,150519,,,D*5D

$GPVTG,92.24,T,,M,0.26,N,0.49,K,D*0C

$GPGGA,154419.000,4239.7574,N,02322.3995,E,2,04,3.70,580.4,M,36.7,M,0000,0000*62

$GPGSA,A,3,20,10,29,15,,,,,,,,,3.82,3.70,0.97*0D

$GPRMC,154419.000,A,4239.7574,N,02322.3995,E,0.31,80.46,150519,,,D*5C

$GPVTG,80.46,T,,M,0.31,N,0.57,K,D*02

$GPGGA,154420.000,4239.7574,N,02322.3996,E,2,04,3.69,580.4,M,36.7,M,0000,0000*63

$GPGSA,A,3,20,10,29,15,,,,,,,,,3.82,3.69,0.97*05

$GPRMC,154420.000,A,4239.7574,N,02322.3996,E,0.29,87.01,150519,,,D*58

$GPVTG,87.01,T,,M,0.29,N,0.54,K,D*0C

$GPGGA,154421.000,4239.7574,N,02322.3997,E,2,04,3.70,580.4,M,36.7,M,0000,0000*6B

$GPGSA,A,3,20,10,29,15,,,,,,,,,3.82,3.70,0.97*0D

$GPRMC,154421.000,A,4239.7574,N,02322.3997,E,0.14,104.29,150519,,,D*66

$GPVTG,104.29,T,,M,0.14,N,0.26,K,D*37

$GPGGA,154422.000,4239.7574,N,02322.3998,E,2,04,3.69,580.4,M,36.7,M,0000,0000*6F

$GPGSA,A,3,20,10,29,15,,,,,,,,,3.82,3.69,0.97*05

$GPGSV,2,1,08,21,64,045,12,20,62,150,29,26,57,221,,10,39,178,28*70

$GPGSV,2,2,08,27,34,304,20,29,15,106,40,15,13,077,43,49,,,26*42

$GPRMC,154422.000,A,4239.7574,N,02322.3998,E,0.08,46.78,150519,,,D*54

$GPVTG,46.78,T,,M,0.08,N,0.14,K,D*08

$GPGGA,154423.000,4239.7574,N,02322.3998,E,2,04,3.69,580.4,M,36.7,M,0000,0000*6E

$GPGSA,A,3,20,10,29,15,,,,,,,,,3.82,3.69,0.97*05

$GPRMC,154423.000,A,4239.7574,N,02322.3998,E,0.05,342.10,150519,,,D*61

$GPVTG,342.10,T,,M,0.05,N,0.10,K,D*38

$GPGGA,154424.000,4239.7575,N,02322.3998,E,2,04,3.69,580.4,M,36.7,M,0000,0000*68

$GPGSA,A,3,20,10,29,15,,,,,,,,,3.81,3.69,0.97*06

$GPRMC,154424.000,A,4239.7575,N,02322.3998,E,0.05,342.78,150519,,,D*69

$GPVTG,342.78,T,,M,0.05,N,0.09,K,D*3E

$GPGGA,154425.000,4239.7575,N,02322.3998,E,2,04,3.69,580.5,M,36.7,M,0000,0000*68

$GPGSA,A,3,20,10,29,15,,,,,,,,,3.81,3.69,0.97*06

$GPRMC,154425.000,A,4239.7575,N,02322.3998,E,0.06,308.53,150519,,,D*6C

$GPVTG,308.53,T,,M,0.06,N,0.11,K,D*33

$GPGGA,154426.000,4239.7575,N,02322.3998,E,2,04,3.68,580.5,M,36.7,M,0000,0000*6A

$GPGSA,A,3,20,10,29,15,,,,,,,,,3.81,3.68,0.97*07

$GPRMC,154426.000,A,4239.7575,N,02322.3998,E,0.17,40.15,150519,,,D*52

$GPVTG,40.15,T,,M,0.17,N,0.31,K,D*0C

$GPGGA,154427.000,4239.7575,N,02322.3998,E,2,04,3.68,580.5,M,36.7,M,0000,0000*6B

$GPGSA,A,3,20,10,29,15,,,,,,,,,3.81,3.68,0.97*07

$GPGSV,2,1,08,21,64,045,,20,62,150,29,26,57,221,,37,40,182,*77

$GPGSV,2,2,08,10,39,177,29,27,34,304,18,29,15,106,40,15,13,077,43*71

$GPRMC,154427.000,A,4239.7575,N,02322.3998,E,0.20,48.66,150519,,,D*5B

$GPVTG,48.66,T,,M,0.20,N,0.38,K,D*0D

$GPGGA,154428.000,4239.7576,N,02322.3999,E,2,04,3.68,580.5,M,36.7,M,0000,0000*66

$GPGSA,A,3,20,10,29,15,,,,,,,,,3.81,3.68,0.97*07

$GPRMC,154428.000,A,4239.7576,N,02322.3999,E,0.16,75.16,150519,,,D*5A

$GPVTG,75.16,T,,M,0.16,N,0.30,K,D*09

$GPGGA,154429.000,4239.7576,N,02322.3999,E,2,04,3.68,580.5,M,36.7,M,0000,0000*67

$GPGSA,A,3,20,10,29,15,,,,,,,,,3.81,3.68,0.97*07

$GPRMC,154429.000,A,4239.7576,N,02322.3999,E,0.17,4.62,150519,,,D*6F

$GPVTG,4.62,T,,M,0.17,N,0.32,K,D*3F

$GPGGA,154430.000,4239.7576,N,02322.4000,E,2,04,4.90,580.5,M,36.7,M,0000,0000*61

$GPGSA,A,3,20,10,29,15,,,,,,,,,6.34,4.90,4.03*05

$GPRMC,154430.000,A,4239.7576,N,02322.4000,E,0.09,33.93,150519,,,D*5C

$GPVTG,33.93,T,,M,0.09,N,0.16,K,D*0C

$GPGGA,154431.000,4239.7576,N,02322.4000,E,2,04,3.68,580.5,M,36.7,M,0000,0000*60

$GPGSA,A,3,20,10,29,15,,,,,,,,,3.80,3.68,0.97*06

$GPRMC,154431.000,A,4239.7576,N,02322.4000,E,0.05,70.74,150519,,,D*5F

$GPVTG,70.74,T,,M,0.05,N,0.09,K,D*00

$GPGGA,154432.000,4239.7576,N,02322.4000,E,2,04,3.67,580.5,M,36.7,M,0000,0000*6C

$GPGSA,A,3,20,10,29,15,,,,,,,,,3.80,3.67,0.97*09

$GPGSV,2,1,08,21,64,045,,20,62,150,28,26,57,221,,39,40,177,*72

$GPGSV,2,2,08,10,39,177,29,27,34,304,16,29,15,106,40,15,13,077,44*78

$GPRMC,154432.000,A,4239.7576,N,02322.4000,E,0.18,114.21,150519,,,D*63

$GPVTG,114.21,T,,M,0.18,N,0.34,K,D*31

$GPGGA,154433.000,4239.7576,N,02322.4001,E,2,04,3.67,580.5,M,36.7,M,0000,0000*6C

$GPGSA,A,3,20,10,29,15,,,,,,,,,3.80,3.67,0.97*09

$GPRMC,154433.000,A,4239.7576,N,02322.4001,E,0.13,74.51,150519,,,D*58

$GPVTG,74.51,T,,M,0.13,N,0.24,K,D*0B

$GPGGA,154434.000,4239.7576,N,02322.4001,E,2,04,3.67,580.5,M,36.7,M,0000,0000*6B

$GPGSA,A,3,20,10,29,15,,,,,,,,,3.80,3.67,0.97*09

$GPRMC,154434.000,A,4239.7576,N,02322.4001,E,0.24,354.31,150519,,,D*6C

$GPVTG,354.31,T,,M,0.24,N,0.44,K,D*3E

$GPGGA,154435.000,4239.7577,N,02322.4001,E,2,04,4.89,580.5,M,36.7,M,0000,0000*6C

$GPGSA,A,3,20,10,29,15,,,,,,,,,6.34,4.89,4.03*0D

$GPRMC,154435.000,A,4239.7577,N,02322.4001,E,0.30,323.12,150519,,,D*68

$GPVTG,323.12,T,,M,0.30,N,0.55,K,D*3A

$GPGGA,154436.000,4239.7578,N,02322.4001,E,2,04,3.67,580.5,M,36.7,M,0000,0000*67

$GPGSA,A,3,20,10,29,15,,,,,,,,,3.80,3.67,0.97*09

$GPRMC,154436.000,A,4239.7578,N,02322.4001,E,0.27,337.62,150519,,,D*60

$GPVTG,337.62,T,,M,0.27,N,0.51,K,D*3A
