
$GPVTG,12.96,T,,M,0.10,N,0.18,K,A*09

$GPGGA,182839.000,4244.0616,N,02317.9927,E,1,08,1.42,458.9,M,36.7,M,,*6D

$GPGSA,A,3,14,08,32,27,22,01,03,11,,,,,3.38,1.42,3.07*02

$GPRMC,182839.000,A,4244.0616,N,02317.9927,E,0.15,305.31,030619,,,A*6F

$GPVTG,305.31,T,,M,0.15,N,0.28,K,A*37

$GPGGA,182840.000,4244.0617,N,02317.9926,E,1,08,1.17,458.9,M,36.7,M,,*63

$GPGSA,A,3,14,08,32,27,22,01,03,11,,,,,1.51,1.17,0.95*07

$GPGSV,4,1,13,18,73,326,22,11,59,299,22,14,57,112,35,08,54,209,34*7C

$GPGSV,4,2,13,32,53,077,22,22,47,260,29,01,46,307,16,27,27,174,32*75

$GPGSV,4,3,13,33,27,229,,03,25,252,20,10,22,060,16,28,12,308,*71

$GPGSV,4,4,13,31,02,129,*41

$GPRMC,182840.000,A,4244.0617,N,02317.9926,E,0.19,328.76,030619,,,A*61

$GPVTG,328.76,T,,M,0.19,N,0.35,K,A*3B

$GPGGA,182841.000,4244.0617,N,02317.9926,E,1,08,1.17,458.9,M,36.7,M,,*62

$GPGSA,A,3,14,08,32,27,22,01,03,11,,,,,1.51,1.17,0.95*07

$GPRMC,182841.000,A,4244.0617,N,02317.9926,E,0.10,345.63,030619,,,A*66

$GPVTG,345.63,T,,M,0.10,N,0.19,K,A*33

$GPGGA,182842.000,4244.0617,N,02317.9926,E,1,08,1.42,458.9,M,36.7,M,,*61

$GPGSA,A,3,14,08,32,27,22,01,03,11,,,,,3.39,1.42,3.08*0C

$GPRMC,182842.000,A,4244.0617,N,02317.9926,E,0.23,357.64,030619,,,A*61

$GPVTG,357.64,T,,M,0.23,N,0.42,K,A*39

$GPGGA,182843.000,4244.0618,N,02317.9926,E,1,08,1.42,458.9,M,36.7,M,,*6F

$GPGSA,A,3,14,08,32,27,22,01,03,11,,,,,3.38,1.42,3.07*02

$GPRMC,182843.000,A,4244.0618,N,02317.9926,E,0.25,4.53,030619,,,A*68

$GPVTG,4.53,T,,M,0.25,N,0.47,K,A*3B

$GPGGA,182844.000,4244.0619,N,02317.9926,E,1,08,1.42,459.0,M,36.7,M,,*61

$GPGSA,A,3,14,08,32,27,22,01,03,11,,,,,3.38,1.42,3.07*02

$GPRMC,182844.000,A,4244.0619,N,02317.9926,E,0.27,6.02,030619,,,A*6A

$GPVTG,6.02,T,,M,0.27,N,0.51,K,A*38

$GPGGA,182845.000,4244.0619,N,02317.9926,E,1,08,1.42,459.0,M,36.7,M,,*60

$GPGSA,A,3,14,08,32,27,22,01,03,11,,,,,3.39,1.42,3.08*0C

$GPGSV,4,1,13,18,73,326,24,11,59,299,21,14,57,112,35,08,54,209,34*79

$GPGSV,4,2,13,32,53,077,23,22,47,260,29,01,46,307,13,27,27,174,32*71

$GPGSV,4,3,13,33,27,229,,03,25,252,18,10,22,060,18,28,12,308,*74

$GPGSV,4,4,13,31,02,129,*41

$GPRMC,182845.000,A,4244.0619,N,02317.9926,E,0.20,342.25,030619,,,A*6A

$GPVTG,342.25,T,,M,0.20,N,0.38,K,A*36

$GPGGA,182846.000,4244.0620,N,02317.9925,E,1,08,1.17,459.0,M,36.7,M,,*6A

$GPGSA,A,3,14,08,32,27,22,01,03,11,,,,,1.51,1.17,0.95*07

$GPRMC,182846.000,A,4244.0620,N,02317.9925,E,0.14,351.11,030619,,,A*62

$GPVTG,351.11,T,,M,0.14,N,0.27,K,A*3A

$GPGGA,182847.000,4244.0620,N,02317.9925,E,1,08,1.42,459.0,M,36.7,M,,*6B

$GPGSA,A,3,14,08,32,27,22,01,03,11,,,,,3.39,1.42,3.07*03

$GPRMC,182847.000,A,4244.0620,N,02317.9925,E,0.21,316.10,030619,,,A*67

$GPVTG,316.10,T,,M,0.21,N,0.38,K,A*30

$GPGGA,182848.000,4244.0621,N,02317.9925,E,1,08,1.17,459.0,M,36.7,M,,*65

$GPGSA,A,3,14,08,32,27,22,01,03,11,,,,,1.51,1.17,0.95*07

$GPRMC,182848.000,A,4244.0621,N,02317.9925,E,0.26,299.53,030619,,,A*6F

$GPVTG,299.53,T,,M,0.26,N,0.47,K,A*3E

$GPGGA,182849.000,4244.0621,N,02317.9924,E,1,08,1.17,459.0,M,36.7,M,,*65

$GPGSA,A,3,14,08,32,27,22,01,03,11,,,,,1.51,1.17,0.95*07

$GPRMC,182849.000,A,4244.0621,N,02317.9924,E,0.14,350.39,030619,,,A*66

$GPVTG,350.39,T,,M,0.14,N,0.26,K,A*30

$GPGGA,182850.000,4244.0621,N,02317.9924,E,1,08,1.42,459.0,M,36.7,M,,*6D

$GPGSA,A,3,14,08,32,27,22,01,03,11,,,,,3.38,1.42,3.07*02

$GPGSV,4,1,13,18,73,326,22,11,59,299,21,14,57,112,35,08,54,209,34*7F

$GPGSV,4,2,13,32,53,077,24,22,47,260,28,01,46,307,14,27,27,174,32*70

$GPGSV,4,3,13,40,26,128,,03,25,252,17,10,22,060,19,28,12,308,*7D

$GPGSV,4,4,13,31,02,129,*41

$GPRMC,182850.000,A,4244.0621,N,02317.9924,E,0.11,35.93,030619,,,A*5B

$GPVTG,35.93,T,,M,0.11,N,0.20,K,A*03

$GPGGA,182851.000,4244.0621,N,02317.9924,E,1,08,1.17,459.0,M,36.7,M,,*6C

$GPGSA,A,3,14,08,32,27,22,01,03,11,,,,,1.51,1.17,0.95*07

$GPRMC,182851.000,A,4244.0621,N,02317.9924,E,0.10,35.60,030619,,,A*57

$GPVTG,35.60,T,,M,0.10,N,0.18,K,A*05

$GPGGA,182852.000,4244.0622,N,02317.9924,E,1,08,1.17,459.0,M,36.7,M,,*6C

$GPGSA,A,3,14,08,32,27,22,01,03,11,,,,,1.51,1.17,0.95*07

$GPRMC,182852.000,A,4244.0622,N,02317.9924,E,0.07,116.60,030619,,,A*61

$GPVTG,116.60,T,,M,0.07,N,0.13,K,A*38

$GPGGA,182853.000,4244.0622,N,02317.9925,E,1,08,1.17,459.0,M,36.7,M,,*6C

$GPGSA,A,3,14,08,32,27,22,01,03,11,,,,,1.51,1.17,0.95*07

$GPRMC,182853.000,A,4244.0622,N,02317.9925,E,0.17,70.47,030619,,,A*54

$GPVTG,70.47,T,,M,0.17,N,0.31,K,A*0D

$GPGGA,182854.000,4244.0622,N,02317.9925,E,1,08,1.17,459.0,M,36.7,M,,*6B

$GPGSA,A,3,14,08,32,27,22,01,03,11,,,,,1.51,1.17,0.95*07

$GPRMC,182854.000,A,4244.0622,N,02317.9925,E,0.20,120.51,030619,,,A*64

$GPVTG,120.51,T,,M,0.20,N,0.38,K,A*33

$GPGGA,182855.000,4244.0621,N,02317.9926,E,1,08,1.17,459.0,M,36.7,M,,*6A

$GPGSA,A,3,14,08,32,27,22,01,03,11,,,,,1.51,1.17,0.95*07

$GPGSV,4,1,13,18,73,326,21,11,59,299,20,14,57,112,34,08,54,209,33*7B

$GPGSV,4,2,13,32,53,077,24,22,47,260,27,01,46,307,15,27,27,174,32*7E

$GPGSV,4,3,13,40,26,128,,03,25,252,12,10,22,060,19,28,12,308,*78

$GPGSV,4,4,13,31,02,129,*41
